stop_id,stop_code,platform_code,stop_name,stop_desc,stop_lat,stop_lon,zone_id,stop_url,location_type,parent_station,stop_timezone
2349,100,,Kendrick St. / Benton Av.,,35.19555,-111.65373333,0,,0,,
2369,068,,Beaver St. / Hunt Av.,,35.20453333,-111.64721667,0,,0,,
2326,209,,Milton Rd. (Taco Bell),,35.1884,-111.66173333,0,,0,,
2413,050,,Cedar Av. / Aris St. (Salvation Army Store),,35.21795,-111.6161,0,,0,,
769970,103,, Milton Rd. / Forest Meadows St.,,35.180018,-111.661482,,,0,,
2375,072,,Fourth St. (Farmer's Market),,35.20735,-111.61345,,,0,,
2391,165,,Sixth Av. / First St. (Killip Elementary),,35.21078333,-111.61731667,0,,0,,
2398,084,,Country Club Dr. (Bank of America ATM),,35.21246667,-111.57763333,0,,0,,
2428,202,,Fort Valley Rd. / Stevanna Way,,35.22443333,-111.65705,0,,0,,
2343,149,,Rt. 66 / Milton Rd. (Barnes and Noble),,35.1931,-111.65868333,,,0,,
2363,027,,Rt. 66 / Arrowhead Av.,,35.20051944,-111.6178889,,,0,,
769960,225,,Walapai Dr. / S Yaqui Dr. (Forest Ridge Apts.),,35.16321379,-111.65843369,,,0,,
2419,053,,Lockett Rd. / Fanning Dr. ,,35.21836667,-111.59608333,0,,0,,
16294,078,,Foxglenn St. / Butler Av.,,35.1969047941867,-111.59841299057,,,0,,
2346,099,,Butler Av. / San Francisco St. ,,35.193825,-111.6498778,0,,0,,
16306,006,,Knoles Dr. (Campus Heights),,35.1823496932654,-111.65698,,,0,,
769958,223,,Lone Tree Rd. (Coconino Community College),,35.17134989,-111.64829935,,,0,,
2390,203,,Fort Valley Rd. / Forest Av.,,35.21073333,-111.64903333,0,,0,,
16305,005,,University Dr. (Wilson Hall),,35.18519,-111.65551,,,0,,
2351,040,,Rt 66 / Enterprise Rd.,,35.19575,-111.62655,,,0,,
2403,171,,Fourth St. / Felice Av. (Wells Fargo),,35.21415,-111.61363333,0,,0,,
16300,173,,Fourth St. / Huntington Dr. (Aquatic Center),,35.2043479313656,-111.611153483391,,,0,,
10094,054,,Kaspar Dr. (NAIPTA),,35.21796,-111.59294,,,0,,
2402,083,,Soliere Av. (Timberline Place),,35.21373333,-111.58875,,,0,,
16315,017,,Beaver St. (NAU Bookstore),,35.18808,-111.65418,,,0,,
2437,131,,Peak View St. / Cooper Dr.,,35.23605,-111.67438333,0,,0,,
2312,008,,Beulah Blvd. (Wal-Mart),,35.17505,-111.66365,,,0,,
16325,012,,Woodlands Village Blvd (Harkins Theature ,,35.1832660400714,-111.668571531773,,,0,,
2426,127,,Fort Valley Rd. (Pioneer Museum),,35.22326667,-111.65531667,0,,0,,
2372,028,,Rt. 66 / Fourth St.,,35.20653889,-111.6121167,0,,0,,
798082,241,,Fourth St. / Sparrow Ave. (NPA),,35.199092,-111.607339,,,0,,
2345,071,,Butler Av. / San Francisco St.,,35.19359167,-111.6499556,0,,0,,
769962,227,,Lake Mary Rd. / Mohawk Dr.,,35.16037578,-111.66034692,,,0,,
2330,075,,Butler Av. (Napa Auto Parts),,35.19153056,-111.6289528,0,,0,,
2332,095,,Butler Av. (Golden Eagle Dist),,35.19175278,-111.6295167,0,,0,,
2316,112,,Lone Tree Rd. / Pine Knoll Dr.,,35.1800171275027,-111.648173332214,,,0,,
2377,201,,Thorpe Rd. / Bonito St.,,35.20776,-111.65315,,,0,,
2423,059,,Lockett Rd. / Fanning Dr.,,35.21859722,-111.5951722,0,,0,,
2327,115,,Lone Tree Rd. / Franklin Av.,,35.1902457206698,-111.645563542843,,,0,,
2331,074,,Butler Av.  (Shell Food Mart),,35.19160833,-111.6357944,0,,0,,
2371,192,,Thorpe Rd. (Ball Fields) ,,35.2062743566289,-111.658601760864,,,0,,
2338,093,,Butler Av. (Black Barts),,35.19233333,-111.61788333,0,,0,,
2435,034,,Winter Dr. / Christmas Tree Ln. ,,35.23538333,-111.57556667,0,,0,,
2394,066,,Forest Av. / Turquoise Dr. ,,35.21096111,-111.6390944,0,,0,,
769966,231,,Milton Rd. / University Av. (Target),,35.18366178,-111.66124174,,,0,,
2341,155,,Rt. 66 / Metz Walk,,35.19261111,-111.66117,,,0,,
2411,138,,Fort Valley Rd. / Meade Ln.,,35.21761667,-111.65068333,0,,0,,
2412,049,,Cedar Av. / West St. (Coconino High School),,35.21795,-111.62025,,,0,,
2430,132,,Peak View St. /Fremont Blvd.,,35.23151667,-111.67376667,0,,0,,
2433,208,,Fort Valley Rd. (Museum of Northern Arizona),,35.23475,-111.66493333,0,,0,,
16310,152,,University Av. (True North Denistry),,35.18398,-111.670982837677,,,0,,
2424,062,,Lockett Rd. / King St.,,35.21844,-111.61147,,,0,,
2362,147,,Aspen Av. (City Hall),,35.19940556,-111.6512361,0,,0,,
2414,063,,Cedar Av. (Cedar Plaza),,35.21806667,-111.61601667,0,,0,,
2425,031,,Rt. 66 / Country Club & FUTS Trail,,35.22191667,-111.58646667,0,,0,,
2319,148,,Woodlands Village Blvd. / University Av.,,35.18448333,-111.6683,0,,0,,
16293,151,,Thompson St. (Arizona Daily Sun),,35.186207925774,-111.675124168396,,,0,,
769956,221,,Lone Tree Rd. / Brannen Cir. ,,35.18616258,-111.64729574,,,0,,
2373,038,,Rt 66 / Fourth St.,,35.20687,-111.6123,,,0,,
2417,051,,Lockett Rd. / King St.,,35.21835278,-111.6112889,0,,0,,
2347,041,,Rt 66 / Switzer Canyon Dr.,,35.19418056,-111.6322528,,,0,,
2370,143,,Thorpe Rd. (Ball Fields) ,,35.20596667,-111.65886667,0,,0,,
16313,014,,Knoles Dr. (Campus Heights),,35.1828670578037,-111.65708899498,,,0,,
2309,106,,Lake Mary Rd. / High Country Tr.,,35.16595,-111.66445,0,,0,,
16304,004,,Beaver St. (Gillenwater Hall),,35.18825,-111.65439,,,0,,
2383,067,,Beaver St. (Flagstaff Medical Center),,35.20867,-111.64516,,,0,,
2404,048,,Cedar Av. / Gemini Dr.,,35.21429,-111.631,,,0,,
2408,069,,Beaver St. / Birch Av. ,,35.1999579656529,-111.649487614632,,,0,,
2401,167,,West St. / Felice Av.,,35.21356667,-111.62136667,,,0,,
16298,174,,Huntington Dr. (Wal-Mart Supercenter),,35.1979196083476,-111.617378890514,,,0,,
2306,107,,Lake Mary Rd. / Mohawk Dr.,,35.16216667,-111.66258333,0,,0,,
2397,088,,Soliere Av. (Butterfield Apts),,35.21205,-111.59273333,0,,0,,
2348,156,,Milton Rd. / Butler Av.,,35.19375,-111.65707,,,0,,
2395,086,,Soliere Av. / Country Club Dr.,,35.2118,-111.57813333,0,,0,,
2340,072,,Butler Av. / Elden St.,,35.1923982524551,-111.646027565002,,,0,,
2389,089,,Soliere Av. / Elk Run St.,,35.21050278,-111.5955361,0,,0,,
769961,226,,Walapai Dr. / Lake Mary Rd.,,35.16037578,-111.66034692,,,0,,
2364,045,,San Francisco St. / Elm Av.,,35.20158333,-111.64601667,0,,0,,
2422,060,,Lockett Rd. / Manor Rd.,,35.21855,-111.6011806,0,,0,,
809017,,,Hart Prairie Lodge,,35.33031,-111.71066,,,0,,
2335,073,,Butler Av. / Cambridge Ln. ,,35.19241,-111.64197,,,0,,
2325,190,,Rt. 66 / Woodlands Village Blvd. (Doubletree),,35.18821111,-111.6677389,,,0,,
2350,026,,Rt. 66 / Enterprise Rd. ,,35.19556667,-111.62636667,,,0,,
769963,228,,Lake Mary Rd. / High Country Tr.,,35.16585636,-111.66416479,,,0,,
16308,009,,Forest Meadows St. (Shell One Stop),,35.17917,-111.6689,,,0,,
769964,229,,Lake Mary Rd. / Beulah Blvd.,,35.17015447,-111.66598969,,,0,,
2344,025,,Rt. 66 / Switzer Canyon Dr.,,35.19352778,-111.6346944,,,0,,
2307,109,,Walapai Dr. / S Yaqui Dr. (Forest Ridge Apts),,35.1627882675128,-111.658569574356,,,0,,
2427,035,,Flagstaff Mall Transfer Center,,35.22433333,-111.57821667,0,,0,,
2440,033,,Christmas Tree Ln. / Snowflake Dr.,,35.23896944,-111.5733528,0,,0,,
769965,230,,Milton Rd. / I17,,35.18001626,-111.66112335,,,0,,
2376,090,,Soliere Av. / Foxlair (East End),,35.20703889,-111.6003361,0,,0,,
2320,102,,Milton Rd.  / University Av. (Wendy's),,35.18456111,-111.6614472,0,,0,,
2374,080,,Soliere Av. / Foxlair Dr. (East End),,35.20669167,-111.6003444,0,,0,,
2323,114,,Lone Tree Rd. / Brannen Cir.,,35.18711667,-111.64636667,0,,0,,
2328,150,,Rt. 66 / Pinnacle St. ,,35.19048333,-111.66481667,,,0,,
2392,164,,Sixth Av. / Third St.,,35.21078333,-111.61448333,0,,0,,
2409,170,,Fourth St. / Cedar Av. ,,35.21726667,-111.6136,0,,0,,
2415,207,,Fort Valley Rd. / Meade Ln.,,35.21808333,-111.65058333,0,,0,,
2382,200,,Thorpe Rd. (Clark Homes),,35.20826,-111.65701,,,0,,
2400,065,,Cedar Av. / Gemini Dr.,,35.21336667,-111.63141667,0,,0,,
2388,047,,Forest Av. /Turquoise Dr.,,35.21049444,-111.6394472,0,,0,,
16311,010,,Forest Meadows St. (Forest Meadows Apt.),,35.18163,-111.67075,,,0,,
2361,039,,Rt 66 / Arrowhead Av. (KFC),,35.1994,-111.61938333,,,0,,
2342,098,,Butler Av. / Elden St.,,35.19264167,-111.6462972,,,0,,
769967,232,,Milton Rd. / Plaza Way,,35.18876309,-111.66140851,,,0,,
2352,042,,Rt 66 / San Francisco St.,,35.19718056,-111.647575,0,,0,,
2360,160,,Santa Fe Av. / Park St.,,35.19933333,-111.655,0,,0,,
2387,081,,Soliere Av. / Elk Run St.,,35.21027222,-111.5955194,0,,0,,
16314,016,,University Dr. (Reilly Hall),,35.18508,-111.65455,,,0,,
2418,052,,Lockett Rd. / Alta Vista Dr.,,35.21836667,-111.60375,0,,0,,
769955,220,,Lone Tree Rd. / Franklin Av.,,35.18933868,-111.646027565002,,,0,,
16301,092,,Foxglenn St. / Butler Av.,,35.1968149288228,-111.598584651947,,,0,,
2393,166,,Sixth Av. / West St.,,35.2108,-111.62053333,0,,0,,
769959,224,,Zuni Dr. / Kofa Dr.,,35.1647893,-111.65529582,,,0,,
2431,128,,Fort Valley Rd.  / Winding Brook Rd. (The Peaks),,35.23245,-111.66163333,0,,0,,
16316,018,,Beaver St. / Franklin Av. (Biological Sciences),,35.19131,-111.65312,,,0,,
20628,067,,Beaver St. (Flagstaff Medical Center),,35.2094586658701,-111.64448261261,,,0,,
16326,014,,McConnell Dr. (Social and Behavioral Sciences),,35.1787543572069,-111.658687591553,,,0,,
2334,077,,Butler Av. (Little America),,35.19186944,-111.6193139,0,,0,,
2367,079,,Soliere Av. / Foxlair Dr. (West End),,35.20340556,-111.6047944,0,,0,,
2396,082,,Soliere Av. (Butterfield Apts),,35.21186667,-111.59271667,0,,0,,
2432,032,,N. 89 / Smokerise Dr. (Maverick),,35.23383333,-111.57541667,0,,0,,
2436,129,,Fort Valley Rd. / Valley Crest St.,,35.235948,-111.665677,,,0,,
10096,055,,Lynch Rd.,,35.22274,-111.58669,,,0,,
16299,162,,Fourth St. / Huntington Dr. (Aquatic Center),,35.2045232620627,-111.610826253891,,,0,,
2336,076,,Butler Av. (Burger King),,35.19204722,-111.6241,0,,0,,
2339,097,,Butler Av. / Sawmill Rd. ,,35.19235278,-111.6404056,,,0,,
2406,030,,Rt. 66 / Fanning Dr. ,,35.21583333,-111.59503333,0,,0,,
2434,205,,Fremont Blvd. (Cheshire Park),,35.23523333,-111.66925,0,,0,,
10095,058,,Kaspar Dr. (NAIPTA),,35.2183994859519,-111.592683792114,,,0,,
16296,133,,Fremont Blvd. / Lynette Dr.,,35.2324924258923,-111.668536663055,,,0,,
2365,144,,Thorpe Rd. (Adult Center),,35.202726104473,-111.658381819725,,,0,,
2405,087,,Soliere Av. (Timberline Place),,35.21471667,-111.58713333,,,0,,
2381,142,,Thorpe Rd. (Clark Homes),,35.20831,-111.65689,,,0,,
2407,036,,Rt 66 / Fanning Dr. (Jack in the Box),,35.21618333,-111.5951,0,,0,,
16307,007,,McConnell Dr. (Social and Behavioral Sciences),,35.1787324339382,-111.658376455307,,,0,,
2384,037,,Rt 66 / Steves Blvd. (Super Pawn),,35.20985,-111.6068,0,,0,,
2399,139,,Fort Valley Rd. / Whipple Rd.,,35.21265,-111.65026667,0,,0,,
2355,021,,San Francisco St. / Birch Av.,,35.19868333,-111.64736667,0,,0,,
2379,163,,Fourth St. (Walgreen's) ,,35.20702,-111.6133,,,0,,
2357,119,,Santa Fe Av. /Park St.,,35.1993815321615,-111.654760837555,,,0,,
2368,091,,Soliere Av. / Foxlair (West End),,35.20358333,-111.605,0,,0,,
10097,057,,Cummings St.,,35.22405,-111.5845,,,0,,
16303,003,,Beaver St. / Franklin Av. (Biological Sciences),,35.19125,-111.65327,,,0,,
769968,233,,Sawmill Rd. / (The Grove),,35.18890194,-111.6431838,,,0,,
2421,061,,Lockett Rd. / Alta Vista Dr.,,35.21853611,-111.6037833,0,,0,,
16319,001,,Beaver St. / Phoenix Av.,,35.19716,-111.65087,,,0,,
2311,111,,Lone Tree Rd. (Coconino Community College),,35.17131667,-111.64813333,0,,0,,
16312,013,,Beulah Blvd. / (Olive Garden),,35.17638,-111.66282,,,0,,
2353,024,,Downtown Connection Center,,35.19743333,-111.65253333,,,0,,
2366,191,,Thorpe Rd. (Adult Center),,35.2028597968337,-111.658118963242,,,0,,
2386,029,,Rt. 66 / Steves Blvd.,,35.20998333,-111.60603333,0,,0,,
809016,,,Highway 180 / Snowbowl Road,,35.270143,-111.719754,,,0,,
769957,222,,Lone Tree Rd. / Pine Knoll Dr. ,,35.17895069,-111.64832957,,,0,,
2416,064,,Cedar Av. / West St.,,35.21808333,-111.6205,0,,0,,
2439,130,,Peak View St. / Mountain Dr.,,35.23863333,-111.67375,0,,0,,
2305,108,,Walapai Dr. / Lake Mary Rd.,,35.15968333,-111.6604,0,,0,,
2333,096,,Butler Av. (ProBuilt),,35.19185,-111.63536667,,,0,,
798081,238,,Gemini Rd. (BASIS),,35.208268,-111.634102,,,0,,
2337,094,,Butler Av. / Lucky Ln. (Conoco),,35.19226944,-111.6231778,0,,0,,
2438,204,,Fremont Blvd. / FALA,,35.23816,-111.66935,,,0,,
2359,118,,Aspen Av. (City Hall),,35.19924722,-111.6512,0,,0,,
2380,046,,San Francisco St. (Flagstaff Medical Center),,35.20816,-111.6425,,,0,,
16297,161,,Huntington Dr. (Wal-Mart Supercenter),,35.19884,-111.61594,,,0,,
2378,141,,Thorpe Rd. / Bonito St.,,35.20782,-111.65313,,,0,,
798083,240,,Fourth St. / Sparrow Ave. (NPA),,35.199113,-111.607537,,,0,,
2308,110,,Zuni Dr. / Kofa Dr.,,35.16458333,-111.65545,0,,0,,
2310,105,,Lake Mary Rd. / I-17 Underpass,,35.16803333,-111.66483333,0,,0,,
