stop_id,stop_code,platform_code,stop_name,stop_desc,stop_lat,stop_lon,zone_id,stop_url,location_type,parent_station,stop_timezone,position,direction,wheelchair_boarding
2320943,8897,,Rock Quarry Rd at Martin Luther King Jr Memorial Gardens,,35.7681369582726,-78.6168212902847,,,0,,America/New_York,,,0
2323762,8589,,Method Rd at Richward Pl,,35.7935061600312,-78.6937203802017,,,0,,America/New_York,,,0
2326845,261,,Enterprise St at Clark Ave,,35.789222,-78.664027,,,0,,America/New_York,,,0
2330752,8898,,Millbank St at Brighton Rd,,35.797145,-78.608443,,,0,,America/New_York,,,0
2387286,9925,,NC State Fairgrounds Gate 1,,35.793469,-78.70905,,https://www.ncstatefair.org/2019/index.htm,0,,America/New_York,,,0
2388550,9928,,Triangle Town Center Park-and-Ride (Dillard's),,35.865965,-78.579182,,https://goraleigh.org/news/ride-goraleigh-state-fair,0,,America/New_York,,,0
2388551,9929,,White Oak Park-and-Ride,,35.689912,-78.576986,,https://goraleigh.org/news/ride-goraleigh-state-fair,0,,America/New_York,,,0
2455705,8454,,Six Forks Rd at Grace Lutheran Church (NB),,35.85036,-78.64327,,,0,,America/New_York,,,0
2455706,8456,,Six Forks Rd at Grace Lutheran Church (SB),,35.84984,-78.64414,,,0,,America/New_York,,,0
2483901,8176,,Glenwood Ave at Cole St (Raleigh Charter High School),,35.79587,-78.646488,,,0,,America/New_York,,,0
2501591,9445,,Hillsborough St at Dixie Trail (EB),,35.789291,-78.675324,,,0,,America/New_York,,,0
2505165,8046,,Capital Blvd at Highwoods Blvd,,35.817539,-78.599335,,,0,,America/New_York,,,0
2505167,8111,,Wake Forest Rd at Ronald Dr,,35.839142,-78.611881,,,0,,America/New_York,,,0
2505225,9288,,Poole Rd at Cooper Rd (WB),,35.772305,-78.584989,,,0,,America/New_York,,,0
2505226,9609,,Martin Luther King Jr Blvd at Rock Quarry Rd (WB),,35.768685,-78.617872,,,0,,America/New_York,,,0
2505985,8435,,St Marys St at Jones St (NB),,35.782682,-78.650602,,,0,,America/New_York,,,0
2506030,8076,,Blue Ridge Rd at Macon Pond Rd,,35.819593,-78.704965,,,0,,America/New_York,,,0
2506031,8283,,Blue Ridge Rd at Forest View Rd (SB),,35.816583,-78.705248,,,0,,America/New_York,,,0
2506032,8086,,Blue Ridge Rd at Reedy Creek Rd (SB),,35.809357,-78.705754,,,0,,America/New_York,,,0
2506033,8089,,Blue Ridge Rd at District Dr (SB),,35.80576,-78.706689,,,0,,America/New_York,,,0
2506034,8131,,Blue Ridge Rd at Hillsborough St (SB),,35.795587,-78.707081,,,0,,America/New_York,,,0
2506035,8150,,Blue Ridge Rd at Crimson Cross Ct,,35.787821,-78.703529,,,0,,America/New_York,,,0
2506036,8226,,Western Blvd at Merendino St,,35.785729,-78.705313,,,0,,America/New_York,,,0
2506037,8275,,Hillsborough St at Western Blvd,,35.787155,-78.717827,,,0,,America/New_York,,,0
2506038,8279,,Hillsborough St at Powell Dr,,35.790661,-78.715848,,,0,,America/New_York,,,0
2506039,8281,,Hillsborough St at NC State Fairgrounds,,35.793045,-78.709216,,,0,,America/New_York,,,0
2506040,8133,,Blue Ridge Rd at Hillsborough St (NB),,35.796166,-78.707153,,,0,,America/New_York,,,0
2506041,8087,,Blue Ridge Rd at District Dr (NB),,35.806445,-78.706225,,,0,,America/New_York,,,0
2506042,8083,,Blue Ridge Rd at Reedy Creek Rd (NC Museum of Art),,35.810185,-78.705432,,,0,,America/New_York,,,0
2506043,8073,,Blue Ridge Rd at Rex Way,,35.819727,-78.704713,,,0,,America/New_York,,,0
2506051,8225,,Edwards Mill Rd at Duraleigh Rd,,35.823545,-78.707594,,,0,,America/New_York,,,0
2506052,8224,,Edwards Mill Rd at Macon Pond Rd (Raleigh Orthopaedic),,35.821725,-78.709784,,,0,,America/New_York,,,0
2506053,8181,,Edwards Mill Rd at Reedy Creek Rd (SB),,35.814849,-78.715464,,,0,,America/New_York,,,0
2506054,8215,,Edwards Mill Rd at Wade Park Blvd (SB),,35.804204,-78.726575,,,0,,America/New_York,,,0
2506055,8222,,Edwards Mill Rd at Trinity Rd (Cardinal Gibbons HS),,35.800897,-78.726992,,,0,,America/New_York,,,0
2506056,8284,,Edwards Mill Rd at Kingdom Way,,35.797933,-78.727312,,,0,,America/New_York,,,0
2506057,8286,,Chapel Hill Rd at Germantown Rd,,35.789903,-78.732602,,,0,,America/New_York,,,0
2506058,8287,,Nowell Rd at Nowell Pointe Dr,,35.792198,-78.73466,,,0,,America/New_York,,,0
2506059,8305,,Nowell Rd at Trinity Commons Ln,,35.798009,-78.733722,,,0,,America/New_York,,,0
2506060,8227,,Nowell Rd at Trinity Rd,,35.801044,-78.731685,,,0,,America/New_York,,,0
2506061,8223,,Trinity Rd at Sunday Dr,,35.800281,-78.729137,,,0,,America/New_York,,,0
2506062,8221,,Edwards Mill Rd at Trinity Rd (NB),,35.800873,-78.726718,,,0,,America/New_York,,,0
2506063,8216,,Edwards Mill Rd at Wade Park Blvd (NB),,35.804894,-78.725754,,,0,,America/New_York,,,0
2506064,8189,,Edwards Mill Rd at Reedy Creek Rd (NB),,35.815627,-78.714301,,,0,,America/New_York,,,0
2506074,8288,,Martin Luther King Jr Blvd at Grantland Dr (EB),,35.770825,-78.610806,,,0,,America/New_York,,,0
2506075,8289,,Martin Luther King Jr Blvd at Peyton St (EB),,35.770873,-78.606422,,,0,,America/New_York,,,0
2506090,8303,,Peyton St at Martin Luther King Jr Blvd (SB),,35.77144,-78.60715,,,0,,America/New_York,,,0
2506091,8229,,Peyton St at Louise St,,35.76841,-78.607,,,0,,America/New_York,,,0
2506092,8230,,Peyton St at Brigham Rd,,35.76616,-78.60595,,,0,,America/New_York,,,0
2506093,8233,,Birch Ridge Dr at Poole Rd,,35.76712,-78.57758,,,0,,America/New_York,,,0
2506094,8236,,Middle Branch Rd at Sunnybrook Rd (WB),,35.76532,-78.58054,,,0,,America/New_York,,,0
2506095,8257,,Bell Dr at Edison Rd (NB),,35.76586,-78.5839,,,0,,America/New_York,,,0
2506096,8258,,Cooper Rd at Bell Dr (SB),,35.76691,-78.5864,,,0,,America/New_York,,,0
2506097,8259,,Little John Rd at Cooper Rd,,35.76375,-78.58785,,,0,,America/New_York,,,0
2506098,8239,,Little John Rd at Weston St (WB),,35.76317,-78.59381,,,0,,America/New_York,,,0
2506099,8260,,Little John Rd at Beverly Dr,,35.76293,-78.59614,,,0,,America/New_York,,,0
2506100,8261,,Beverly Dr at Bromley St (NB),,35.76603,-78.59504,,,0,,America/New_York,,,0
2506101,8262,,Beverly Dr at Friar Tuck Rd (NB),,35.76919,-78.59441,,,0,,America/New_York,,,0
2506103,8024,,Poole Rd at New Hope Rd (EB),,35.76494,-78.55882,,,0,,America/New_York,,,0
2506104,8031,,Poole Rd at Old Poole Rd (EB),,35.76245,-78.55557,,,0,,America/New_York,,,0
2506105,8106,,Poole Rd at Maybrook Dr (EB),,35.7606,-78.55248,,,0,,America/New_York,,,0
2506106,8109,,Poole Rd at River Knoll Dr (EB),,35.75815,-78.54768,,,0,,America/New_York,,,0
2506108,8050,,Barwell Rd at Charles St (NB),,35.75248,-78.53525,,,0,,America/New_York,,,0
2506109,8060,,Barwell Rd at Chatmoss Dr,,35.74499,-78.53735,,,0,,America/New_York,,,0
2506110,8093,,Barwell Rd at Neals Creek Dr,,35.74068,-78.54271,,,0,,America/New_York,,,0
2506111,8105,,Barwell Rd at Barwell Park (SB),,35.73256,-78.55519,,,0,,America/New_York,,,0
2506113,8190,,Shoppes at Battle Bridge,,35.72502,-78.54796,,,0,,America/New_York,,,0
2506115,8102,,Barwell Rd at Barwell Park (NB),,35.73229,-78.55514,,,0,,America/New_York,,,0
2506117,8091,,Barwell Rd at Berkeley Lake Rd,,35.74065,-78.5425,,,0,,America/New_York,,,0
2506118,8055,,Barwell Rd at Damon Ct,,35.744339,-78.537972,,,0,,America/New_York,,,0
2506119,8052,,Barwell Rd at Charles St (SB),,35.75277,-78.53553,,,0,,America/New_York,,,0
2506121,8114,,Poole Rd at River Knoll Dr (WB),,35.75833,-78.54779,,,0,,America/New_York,,,0
2506122,8107,,Poole Rd at Maybrook Dr (WB),,35.76073,-78.55211,,,0,,America/New_York,,,0
2506123,8028,,Poole Rd at Old Poole Rd (WB),,35.76308,-78.55596,,,0,,America/New_York,,,0
2506124,8008,,Poole Rd at New Hope Rd (WB),,35.765799,-78.559531,,,0,,America/New_York,,,0
2506178,8214,,Rock Quarry Rd at Sanderford Rd,,35.750759,-78.611927,,,0,,America/New_York,,,0
2506179,8212,,Rock Quarry Rd at Southeast Raleigh High School,,35.747134,-78.601989,,,0,,America/New_York,,,0
2506180,8211,,Rock Quary Rd at New Birch Dr (Farmington Square),,35.747275,-78.598585,,,0,,America/New_York,,,0
2506181,8208,,Rock Quarry Rd at Sunnybrook Rd (SB),,35.746838,-78.587629,,,0,,America/New_York,,,0
2506182,8202,,Rock Quarry Rd at Trassacks Dr,,35.743916,-78.579772,,,0,,America/New_York,,,0
2506183,8200,,Rock Quarry Rd at Riverbrooke Dr,,35.742601,-78.576286,,,0,,America/New_York,,,0
2506184,8191,,Rock Quarry Rd at Interlock Dr (SB),,35.732595,-78.559854,,,0,,America/New_York,,,0
2506186,8201,,Rock Quarry Rd at Rockwood Dr,,35.743041,-78.576924,,,0,,America/New_York,,,0
2506187,8204,,Rock Quarry Rd at Holloway Rd,,35.744306,-78.580285,,,0,,America/New_York,,,0
2506188,8209,,Rock Quarry Rd at Sunnybrook Rd (NB),,35.746788,-78.586797,,,0,,America/New_York,,,0
2506189,8210,,Rock Quarry Rd at Rock Quarry Crossing,,35.747645,-78.59265,,,0,,America/New_York,,,0
2506190,8213,,Rock Quarry Rd at Compassionate Dr (NB),,35.747319,-78.602155,,,0,,America/New_York,,,0
2506191,8302,,Rock Quarry Rd at Raleigh Blvd (NB),,35.766165,-78.615629,,,0,,America/New_York,,,0
2506205,8119,,Blue Ridge Rd at Westchase Blvd (SB),,35.800711,-78.707517,,,0,,America/New_York,,,0
2506206,8124,,Blue Ridge Rd at Trinity Rd (State Fairgrounds),,35.797476,-78.707831,,,0,,America/New_York,,,0
2506207,8264,,Western Blvd at Powell Dr,,35.786635,-78.712925,,,0,,America/New_York,,,0
2506302,8129,,Blue Ridge Rd at Trinity Rd (NB),,35.797941,-78.707561,,,0,,America/New_York,,,0
2506303,8120,,Blue Ridge Rd at Westchase Blvd (Ramada Inn),,35.801153,-78.707259,,,0,,America/New_York,,,0
2526148,9251,,Martin Luther King Jr Blvd at Glenbrook Dr (EB),,35.772043,-78.60091,,,0,,America/New_York,,,0
2526149,9253,,Martin Luther King Jr Blvd at Glenbrook Dr (WB),,35.77223,-78.600958,,,0,,America/New_York,,,0
2526150,9255,,Martin Luther King Jr Blvd at Peyton St (WB),,35.771107,-78.606712,,,0,,America/New_York,,,0
2526151,9257,,Peyton St at Melvid Ct (NB),,35.77255,-78.606903,,,0,,America/New_York,,,0
2537755,8495,,Hill St at Booker Dr,,35.786151,-78.61722,,,0,,America/New_York,,,0
2537756,8496,,Milburnie Rd at Fisher St,,35.787376,-78.615302,,,0,,America/New_York,,,0
2543547,9508,,Glenbrook Dr at Belmont Dr,,35.766702,-78.603767,,,0,,America/New_York,,,0
2554969,8508,,Rock Quarry Rd at Battle Bridge Rd (Shoppes at Battle Bridge),,35.72363,-78.548973,,,0,,America/New_York,,,0
2558955,8162,,Garner Rd at Bragg St,,35.765856,-78.631643,,,0,,America/New_York,,,0
2558956,8317,,Garner Rd at Hoke St,,35.762627,-78.631569,,,0,,America/New_York,,,0
2558957,8321,,Garner Rd at Raleigh View Rd (SB),,35.745647,-78.631476,,,0,,America/New_York,,,0
2558958,8322,,Garner Rd at Hilltop Dr (SB),,35.741376,-78.630943,,,0,,America/New_York,,,0
2558959,8326,,Garner Rd at Raleigh Pines Dr (SB),,35.738566,-78.629655,,,0,,America/New_York,,,0
2558960,8327,,Garner Rd at Tryon Rd (SB),,35.73262,-78.627889,,,0,,America/New_York,,,0
2558961,8329,,Garner Rd at Meadowbrook Dr (SB),,35.72611,-78.626283,,,0,,America/New_York,,,0
2558962,8334,,Garner Rd at Willow Vista Rd (SB),,35.721143,-78.624393,,,0,,America/New_York,,,0
2558964,8336,,Garner Rd at Yeargan Rd (SB),,35.716884,-78.624074,,,0,,America/New_York,,,0
2558966,8342,,Aversboro Rd at Brooks Ave,,35.702834,-78.618499,,,0,,America/New_York,,,0
2558967,8345,,Aversboro Rd at Lakeside Dr,,35.697511,-78.616819,,,0,,America/New_York,,,0
2558975,8346,,Poole Dr at Aversboro Rd (Garner Family Practice),,35.695333,-78.616075,,,0,,America/New_York,,,0
2558976,8347,,Heather Park Dr at Gulley Glen Dr,,35.693632,-78.612808,,,0,,America/New_York,,,0
2558977,8357,,Heather Park Dr at Southerby Bluffs Ct,,35.691742,-78.614081,,,0,,America/New_York,,,0
2558978,8361,,Timber Dr at Benson Rd (EB),,35.686162,-78.603522,,,0,,America/New_York,,,0
2558979,8428,,Timber Dr at White Oak Rd,,35.687725,-78.592101,,,0,,America/New_York,,,0
2558980,1637,,White Oak Shopping Center Park & Ride,,35.692121,-78.581775,,,0,,America/New_York,,,0
2558981,1926,,Vandora Springs Rd at Beichler Rd,,35.708829,-78.624751,,,0,,America/New_York,,,0
2558982,1915,,7th Ave at Forest Hills Dr (SB),,35.706269,-78.622904,,,0,,America/New_York,,,0
2558983,1916,,7th Ave at Garner Town Hall (SB),,35.705224,-78.620677,,,0,,America/New_York,,,0
2558984,1922,,Aversboro Rd at Claymore Dr,,35.68972,-78.617068,,,0,,America/New_York,,,0
2558985,1920,,Timber Dr at Aversboro Rd,,35.68614,-78.615466,,,0,,America/New_York,,,0
2558986,1918,,Timber Dr at Benson Rd (Timber Crossings),,35.686135,-78.606123,,,0,,America/New_York,,,0
2558988,8381,,Cabela Dr at Eagle Wing Way,,35.6978523,-78.58638575,,,0,,America/New_York,,,0
2558989,8382,,Jones Sausage Rd at Partlo St,,35.700845,-78.587927,,,0,,America/New_York,,,0
2558991,8394,,Garner Rd at Creech Rd (Garner Recreational Park),,35.70625,-78.602444,,,0,,America/New_York,,,0
2558992,8395,,Garner Rd at Broughton St (Garner Elementary),,35.711139,-78.612778,,,0,,America/New_York,,,0
2558993,8397,,Garner Rd at Vandora Springs Rd,,35.713019,-78.620099,,,0,,America/New_York,,,0
2558994,8401,,Garner Rd at Yeargan Rd (NB),,35.717127,-78.624057,,,0,,America/New_York,,,0
2558995,8402,,Garner Rd at Willow Vista Rd (NB),,35.721643,-78.624238,,,0,,America/New_York,,,0
2558996,8403,,Garner Rd at Meadowbrook Dr (NB),,35.726121,-78.626131,,,0,,America/New_York,,,0
2558997,8406,,Garner Rd at Tryon Rd (NB),,35.732731,-78.627747,,,0,,America/New_York,,,0
2558998,8417,,Garner Rd at Raleigh Pines Dr (NB),,35.738649,-78.629528,,,0,,America/New_York,,,0
2558999,8423,,Garner Rd at Hilltop Dr (NB),,35.741031,-78.630683,,,0,,America/New_York,,,0
2559000,8424,,Garner Rd at Raleigh View Rd (NB),,35.746002,-78.63137,,,0,,America/New_York,,,0
2559001,8425,,Garner Rd at Warehouse Dr (NB),,35.752174,-78.631129,,,0,,America/New_York,,,0
2559002,8426,,Garner Rd at Bailey Dr (NB),,35.755931,-78.631232,,,0,,America/New_York,,,0
2559003,8427,,Garner Rd at Peterson St (NB),,35.760299,-78.631345,,,0,,America/New_York,,,0
2559004,8313,,Garner Rd at Branch St,,35.764332,-78.631425,,,0,,America/New_York,,,0
2559022,8429,,New Bern Ave at New Hope Rd,,35.798305,-78.562237,,,0,,America/New_York,,,0
2559023,8430,,New Bern Ave at Kings Pkwy,,35.796273,-78.553633,,,0,,America/New_York,,,0
2559024,8431,,New Bern Ave at Rogers Ln (Edgewater Place),,35.792923,-78.547165,,,0,,America/New_York,,,0
2559025,8432,,Knightdale Blvd at Hodge Rd (EB),,35.795132,-78.519676,,,0,,America/New_York,,,0
2559026,8433,,Knightdale Blvd at Hinton Oaks Blvd (Rex Healthcare),,35.796133,-78.507955,,,0,,America/New_York,,,0
2559027,8446,,Knightdale Blvd at Park Commons Dr (Knightdale Commons),,35.797224,-78.503341,,,0,,America/New_York,,,0
2559028,8448,,Knightdale Blvd at Parkside Commons Dr,,35.798552,-78.49564,,,0,,America/New_York,,,0
2559029,8458,,McKnight Dr at Village Park Dr (SB),,35.796823,-78.492228,,,0,,America/New_York,,,0
2559030,8459,,McKnight Dr at Electric Ave (EB),,35.793751,-78.488167,,,0,,America/New_York,,,0
2559031,8460,,Main St at 2nd Ave (EB),,35.78969,-78.480633,,,0,,America/New_York,,,0
2559032,8462,,N 1st Ave at Knightdale Station Run (NB),,35.796869,-78.475353,,,0,,America/New_York,,,0
2559033,8464,,Knightdale Blvd at Forest Dr,,35.799042,-78.477981,,,0,,America/New_York,,,0
2559034,8465,,N Smithfield Rd at Aragon Dr,,35.799794,-78.48696,,,0,,America/New_York,,,0
2559035,8466,,N Smithfield Rd at Steeple Square Ct,,35.802616,-78.486348,,,0,,America/New_York,,,0
2559036,8467,,Forestville Rd at N Smithfield Rd,,35.808677,-78.483998,,,0,,America/New_York,,,0
2559037,8468,,Forestville Rd at Pebblebrook Dr,,35.805641,-78.478552,,,0,,America/New_York,,,0
2559038,8469,,Old Knight Rd at Forestville Rd,,35.803936,-78.473637,,,0,,America/New_York,,,0
2559039,8476,,Old Knight Rd at Knightdale Blvd,,35.800453,-78.474512,,,0,,America/New_York,,,0
2559040,8478,,N 1st Ave at Knightdale Station Run (SB),,35.796993,-78.475392,,,0,,America/New_York,,,0
2559041,8479,,Main St at 2nd Ave (WB),,35.789835,-78.480689,,,0,,America/New_York,,,0
2559042,8483,,McKnight Dr at Electric Ave (WB),,35.793768,-78.488358,,,0,,America/New_York,,,0
2559043,1905,,McKnight Dr at Village Park Dr (Walmart),,35.796987,-78.492086,,,0,,America/New_York,,,0
2559044,8489,,Knightdale Blvd at Mammoth Dr,,35.799129,-78.496662,,,0,,America/New_York,,,0
2559045,8491,,Knightdale Blvd at Shoppes at Midway (Arby's),,35.797469,-78.503787,,,0,,America/New_York,,,0
2559046,8492,,Knightdale Blvd at Shoppes at Midway (Chili's),,35.796418,-78.50833,,,0,,America/New_York,,,0
2559047,8549,,Knightdale Blvd at Hodge Rd (WB),,35.795406,-78.521118,,,0,,America/New_York,,,0
2559048,8550,,New Bern Ave at Rogers Ln (Aldi),,35.793335,-78.547211,,,0,,America/New_York,,,0
2559049,8551,,New Bern Ave at Raleigh Beach Rd,,35.796188,-78.552609,,,0,,America/New_York,,,0
2559052,8548,,Rolesville Town Hall Park & Ride,,35.915191,-78.47122,,,0,,America/New_York,,,0
2561421,8552,,New Bethel Park & Ride,,35.916359,-78.45213,,,0,,America/New_York,,,0
2562277,1969,,Salisbury St at W Davie St,,35.775086,-78.640452,,,0,,America/New_York,,,0
2562278,1961,,Fuquay-Varina South Park-and-Ride,,35.573104,-78.80199,,,0,,America/New_York,,,0
2562279,1962,,Hilltop Food Lion Fuquay-Varina Park-and-Ride,,35.625342,-78.724821,,,0,,America/New_York,,,0
2562280,1734,,Wilmington St at Hargett St (GoRaleigh Station),,35.778082,-78.638152,,,0,,America/New_York,,,0
2562281,1099,,Elm Ave at White St (Park-and-Ride),New stop for WRX during construction on White Street that caused park-and-ride location to move.,35.975424,-78.510106,,,0,,America/New_York,,,0
2562282,1891,,New Bern Ave at WakeMed (EB),,35.786068,-78.588989,,,0,,America/New_York,,,0
2562283,1889,,E 4th St at Wendell Park-and-Ride (EB),,35.782579,-78.367838,,,0,,America/New_York,,,0
2562284,1888,,Zebulon Park-and-Ride,,35.821668,-78.323486,,,0,,America/New_York,,,0
2562285,1890,,E 4th St at Wendell Park-and-Ride (WB),,35.782705,-78.367856,,,0,,America/New_York,,,0
2575016,8553,,White St at Elm St (NB),,35.97605,-78.510359,,,0,,America/New_York,,,0
2575017,8560,,White St at Wait Ave,,35.978663,-78.509503,,,0,,America/New_York,,,0
2575018,8563,,North Ave at N Main St,,35.98133,-78.51016,,,0,,America/New_York,,,0
2575019,8575,,Stadium Dr at Wake Forest High School (WB),,35.983415,-78.516002,,,0,,America/New_York,,,0
2575020,8579,,Stadium Dr at McDowell Dr (WB),,35.985662,-78.520382,,,0,,America/New_York,,,0
2575021,8580,,Stadium Dr at Whistling Swan Dr (WB),,35.988193,-78.523373,,,0,,America/New_York,,,0
2575022,8581,,Stadium Dr at Glencoe Dr (WB),,35.98991,-78.525686,,,0,,America/New_York,,,0
2575023,8582,,Wake Forest Crossing Shopping Center (WB),,35.989061,-78.529665,,,0,,America/New_York,,,0
2575024,8583,,Wake Forest Crossing at Lowes Foods (SB),,35.986144,-78.533817,,,0,,America/New_York,,,0
2575026,8590,,Wake Union Church Rd at Kearney Rd,,35.982371,-78.541582,,,0,,America/New_York,,,0
2575027,8599,,Retail Dr at Durham Rd / NC 98 (SB),,35.976583,-78.543478,,,0,,America/New_York,,,0
2575028,8600,,Retail Dr at Target (SB),,35.972628,-78.542334,,,0,,America/New_York,,,0
2575029,8602,,Retail Dr at Capital Plaza (NB),,35.970564,-78.541559,,,0,,America/New_York,,,0
2575030,8603,,Retail Dr South (SB),,35.967268,-78.543514,,,0,,America/New_York,,,0
2575031,8604,,Forest Pines Dr at Beestone Ln (SB),,35.960304,-78.546707,,,0,,America/New_York,,,0
2575032,8605,,Forest Pines Dr at North Forest Pines Elementary,,35.954621,-78.545294,,,0,,America/New_York,,,0
2575033,8606,,Forest Pines Dr at Rex Hospital North (SB),,35.947657,-78.545172,,,0,,America/New_York,,,0
2575035,8607,,S Main St at Wake Dr,,35.947692,-78.535109,,,0,,America/New_York,,,0
2575036,8609,,S Main St at Ligon Mill Rd (EB),,35.949531,-78.53128,,,0,,America/New_York,,,0
2575037,8613,,Heritage Branch Rd at Harpers Ferry Ct,,35.948622,-78.519338,,,0,,America/New_York,,,0
2575041,8628,,Franklin St at Yellow Poplar Ave (NB),,35.967508,-78.510191,,,0,,America/New_York,,,0
2575042,8643,,Holding Ave at Brooks St (WB),,35.970432,-78.510338,,,0,,America/New_York,,,0
2575043,8611,,S Main St at Rodgers Rd (The Factory),,35.953226,-78.527045,,,0,,America/New_York,,,0
2611941,9915,,West St at Jones St (R17),,35.782639,-78.645767,,,0,,America/New_York,,,0
2611942,9922,,West St at Tucker St (R18),,35.786336,-78.645556,,,0,,America/New_York,,,0
2611943,9927,,West St at Peace St (R19),R-Line stop (R-19),35.787917,-78.645542,,,0,,America/New_York,,,0
2611944,9931,,Salisbury St at Martin St (R25),,35.777897,-78.640307,,,0,,America/New_York,,,0
2618259,8657,,Branch Ferry Ct at Heritage Branch Rd,,35.949831,-78.50944,,,0,,America/New_York,,,0
2618260,8661,,Heritage Lake Rd at Rogers Rd B,,35.946509,-78.504871,,,0,,America/New_York,,,0
2618261,8663,,Heritage Lake Rd at Heritage Club Ave B,,35.951278,-78.500585,,,0,,America/New_York,,,0
2618262,8664,,Heritage Lake Rd at Gateway Commons,,35.966429,-78.497618,,,0,,America/New_York,,,0
2618263,8678,,Heritage Lake Rd at Friendship Chapel Rd,,35.964228,-78.497992,,,0,,America/New_York,,,0
2618264,8672,,Heritage Lake Rd at Heritage Club Ave A,,35.951187,-78.500742,,,0,,America/New_York,,,0
2618265,8666,,Heritage Lake Rd at Rogers Rd A,,35.946471,-78.505282,,,0,,America/New_York,,,0
2618266,8665,,Rogers Rd at S Franklin St A,,35.949983,-78.509331,,,0,,America/New_York,,,0
2618487,8710,,Garner Rd at Wilson St OB,,35.735144,-78.628042,,,0,,America/New_York,,,0
2618488,8726,,Garner Rd at Wilson St IB,,35.735266,-78.627919,,,0,,America/New_York,,,0
2618490,8679,,Garner Rd at Benson Rd,,35.711088,-78.613317,,,0,,America/New_York,,,0
2618491,8681,,Garner Rd at Jones Sausage Rd,,35.703332,-78.589165,,,0,,America/New_York,,,0
2618492,8682,,Eagle Wing Way at Cabela Dr,,35.697852,-78.585678,,,0,,America/New_York,,,0
2618493,8686,,Timber Dr East Midblock B,,35.68794035,-78.5923112,,,0,,America/New_York,,,0
2618494,8709,,Timber Dr East at Benson St,,35.68625481,-78.5997938,,,0,,America/New_York,,,0
2618495,1917,,Timber Dr at Chapwith Rd,,35.68635374,-78.60618473,,,0,,America/New_York,,,0
2618496,8711,,Timber Dr at Aversboro Rd,,35.68632004,-78.61638816,,,0,,America/New_York,,,0
2618497,1921,,Aversboro Dr at Claymore Dr B,,35.68901341,-78.61697024,,,0,,America/New_York,,,0
2618498,8735,,Heather Park Dr at Southerby Bluffs Ct B,,35.69176722,-78.61367333,,,0,,America/New_York,,,0
2618499,8749,,Heather Park Dr at Dartmouth Glen Dr,,35.69330525,-78.61270023,,,0,,America/New_York,,,0
2618500,8757,,Poole Dr at Bayleigh Ct,,35.69544009,-78.61592263,,,0,,America/New_York,,,0
2618501,8758,,Aversboro Dr at Lakeside Dr B,,35.69763265,-78.61665558,,,0,,America/New_York,,,0
2618502,8764,,Aversboro Dr at Delbridge St,,35.70290463,-78.61836077,,,0,,America/New_York,,,0
2618503,1532,,7th Ave at Garner Town Hall IB,,35.70543193,-78.62086342,,,0,,America/New_York,,,0
2618504,1533,,7th Ave at Forest Hills Dr IB,,35.70674916,-78.62344278,,,0,,America/New_York,,,0
2618505,1925,,Vandora Springs Rd at Beichler Rd IB,,35.70895801,-78.62440301,,,0,,America/New_York,,,0
2618506,8768,,Vandora Springs Rd at Methodist Dr,,35.71216,-78.62084,,,0,,America/New_York,,,0
2712696,9075,,Powell Dr at Driftwood Dr,,35.781788,-78.712879,,,0,,America/New_York,,,0
2712697,9076,,Powell Dr at Huntingdon Dr,,35.778414,-78.713416,,,0,,America/New_York,,,0
2712698,9077,,Melbourne Rd at Beltline,,35.777381,-78.709965,,,0,,America/New_York,,,0
2712699,9094,,Avent Ferry Rd at Greek Way,,35.766917,-78.698378,,,0,,America/New_York,,,0
2712700,9095,,Avent Ferry Rd at Gorman St (Inbound),,35.768178,-78.69453,,,0,,America/New_York,,,0
2712701,9096,,Avent Ferry Rd at Trailwood Rd (Inbound),,35.768671,-78.692196,,,0,,America/New_York,,,0
2712702,9606,,Avent Ferry Rd at Gorman St (Outbound),,35.768353,-78.694538,,,0,,America/New_York,,,0
2730160,9772,,Blue Ridge Rd at Beryl Rd,,35.793556,-78.70584,,,0,,America/New_York,,,0
2730161,8537,,Trailwood Dr at Centennial,,35.753744,-78.694625,,,0,,America/New_York,,,0
2734143,8278,,Hillsborough St at Oberlin Rd,,35.78561875,-78.66134786,,,0,,America/New_York,,,0
2734702,8765,,S Tarboro St at Gatling St,,35.7754402504229,-78.6221534241077,,,0,,America/New_York,,,0
776137,1539,,Hammond Rd at Chapanoke Rd (SECU),,35.735380023081,-78.640414760403,,,0,,America/New_York,,,0
776138,1540,,Hammond Rd at Chapanoke Rd (Detention Center),,35.7352511339709,-78.6400369890013,,,0,,America/New_York,,,0
776139,1811,,White St at Elm Ave (SB),,35.975925,-78.510556,,,0,,America/New_York,,,0
776140,1812,,Wake Forest Crossing at Lowes Foods (NB),,35.98596,-78.53388,,,0,,America/New_York,,,0
776141,1813,,Stadium Dr at Whistling Swan Dr (EB),,35.98804,-78.52343,,,0,,America/New_York,,,0
776142,1814,,Stadium Dr at McDowell Dr (EB),,35.985557,-78.520473,,,0,,America/New_York,,,0
776143,1815,,Stadium Dr at Wake Forest High School (EB),,35.98308,-78.5155,,,0,,America/New_York,,,0
776144,1816,,North Ave at Wingate St (SBTS),,35.98203,-78.51209,,,0,,America/New_York,,,0
776145,1817,,White St at Roosevelt Ave,,35.97979,-78.50906,,,0,,America/New_York,,,0
776146,1818,,Juniper Ave at White St,,35.984396,-78.505377,,,0,,America/New_York,,,0
776147,1819,,Juniper Ave at Taylor St,,35.98363,-78.503377,,,0,,America/New_York,,,0
776148,1820,,Allen Rd at Juniper Ave,,35.982179,-78.500665,,,0,,America/New_York,,,0
776149,1821,,Allen Rd at Best St,,35.97871,-78.50072,,,0,,America/New_York,,,0
776150,1822,,Wait Ave at Highgate Dr,,35.977056,-78.504076,,,0,,America/New_York,,,0
776151,1823,,Roosevelt Ave at Brooks St,,35.97868,-78.50776,,,0,,America/New_York,,,0
776152,1824,,White St at Jones Ave,,35.97823,-78.5098,,,0,,America/New_York,,,0
776153,1825,,Holding Ave at Brooks St (Northern Regional Center),,35.970638,-78.510815,,,0,,America/New_York,,,0
776154,1826,,Franklin St at Yellow Poplar Ave (SB),,35.967538,-78.510431,,,0,,America/New_York,,,0
776158,1830,,S Main St at Rogers Rd (Wake Forest Middle School),,35.952672,-78.524609,,,0,,America/New_York,,,0
776159,1831,,S Main St at Ligon Mill Rd (WB),,35.94998,-78.53085,,,0,,America/New_York,,,0
776160,1832,,S Main St at Aldi Food Market,,35.9477689237458,-78.5353852471221,,,0,,America/New_York,,,0
776161,1833,,New Falls of Neuse Rd at Forest Pin,,35.946004,-78.544698,,,0,,America/New_York,,,0
776162,1834,,Common Oaks Dr at Chriswick House L,,35.9442,-78.54831,,,0,,America/New_York,,,0
776163,1835,,Common Oaks Dr at Oliver Rd,,35.94208,-78.54659,,,0,,America/New_York,,,0
776164,1836,,Forest Pines Dr at Kroger,,35.94345,-78.54474,,,0,,America/New_York,,,0
776165,1837,,Retail Dr South (NB),,35.96743,-78.543,,,0,,America/New_York,,,0
776166,1838,,Retail Dr at Target (NB),,35.97285,-78.54259,,,0,,America/New_York,,,0
776167,1839,,Retail Dr at Durham Rd / NC 98 (NB),,35.97667,-78.54329,,,0,,America/New_York,,,0
776168,1840,,Wake Union Church Rd at Hampton Inn,,35.98203,-78.54201,,,0,,America/New_York,,,0
776169,1841,,Wake Union Church Rd at Food Lion,,35.983023,-78.53997,,,0,,America/New_York,,,0
776170,1844,,Retail Dr at Capital Plaza (NB),,35.970279,-78.541481,,,0,,America/New_York,,,0
776172,1907,,Forest Pines Dr at Rex Hospital North (NB),,35.947866,-78.544973,,,0,,America/New_York,,,0
776173,1908,,Forest Pines Dr at Northeast Library,,35.954213,-78.545201,,,0,,America/New_York,,,0
776174,1909,,Forest Pines Dr at Beestone Ln (NB),,35.960912,-78.546745,,,0,,America/New_York,,,0
776175,1910,,N Main St at W Oak Ave,,35.988924,-78.505375,,,0,,America/New_York,,,0
776176,1911,,N Wingate St at E Chestnut Ave,,35.990455,-78.507616,,,0,,America/New_York,,,0
776181,9764,,Alexander Promenade at Walmart,,35.913328,-78.777034,,,0,,America/New_York,,,0
776182,8001,,GoRaleigh Station,,35.777525,-78.637157,,,0,,America/New_York,,,0
776184,8003,,Wilmington St at Jones St (R7),,35.781897,-78.637952,,,0,,America/New_York,,,0
776185,8005,,Capital Blvd at Crabtree Blvd (NB),,35.8064,-78.61603,,,0,,America/New_York,,,0
776187,8007,,Wilmington St at Polk St,Revived and relocated post-construction to just North of junction of Wilmington Street with Polk Street.,35.78616941832,-78.637745087993,,,0,,America/New_York,,,0
776189,8009,,N Person St at E Franklin St,,35.79031,-78.63414,,,0,,America/New_York,,,0
776190,8010,,Wake Forest Rd at Sasser St (Salvation Army),,35.792129,-78.632604,,,0,,America/New_York,,,0
776191,8011,,Wake Forest Rd at Lafayette Rd,,35.794351,-78.631278,,,0,,America/New_York,,,0
776192,8012,,Wake Forest Rd at Frank St,,35.79622,-78.630159,,,0,,America/New_York,,,0
776193,8013,,Wake Forest Rd at Clifton St,,35.79855,-78.6272,,,0,,America/New_York,,,0
776194,8014,,Automotive Way at Brookside Dr,,35.799631,-78.625286,,,0,,America/New_York,,,0
776195,8015,,Capital Blvd at Fenton St,,35.80242,-78.62003,,,0,,America/New_York,,,0
776196,8016,,Capital Blvd at Wake Tech Adult Ed,,35.80414,-78.61767,,,0,,America/New_York,,,0
776197,8017,,Capital Blvd at Hodges St (NB),,35.81062,-78.61219,,,0,,America/New_York,,,0
776198,8018,,Capital Blvd at Westinghouse Blvd,,35.81593,-78.60178,,,0,,America/New_York,,,0
776199,8019,,Capital Blvd at Brentwood Rd (NB),,35.81849,-78.59637,,,0,,America/New_York,,,0
776200,8020,,Capital Blvd at Trawick Rd,,35.82048,-78.59207,,,0,,America/New_York,,,0
776201,8021,,Capital Blvd at Starmount Dr,,35.82385,-78.58749,,,0,,America/New_York,,,0
776202,8022,,Capital Blvd at Old Buffaloe Rd (NB),,35.82862,-78.58517,,,0,,America/New_York,,,0
776203,8023,,Capital Blvd at Greywood Dr (NB),,35.83185,-78.58415,,,0,,America/New_York,,,0
776204,8025,,Capital Blvd At Calvary Dr,,35.8453,-78.57982,,,0,,America/New_York,,,0
776205,8026,,Capital Blvd at New Hope Rd,,35.85063,-78.58041,,,0,,America/New_York,,,0
776206,8027,,Capital Blvd at Spring Forest Rd (south side),,35.85362,-78.58069,,,0,,America/New_York,,,0
776208,8029,,Capital Blvd at Oak Forest Dr (NB),,35.861696,-78.581597,,,0,,America/New_York,,,0
776209,8030,,Triangle Town Center Mall at Orvis (Park and Ride),,35.863746,-78.576637,,,0,,America/New_York,,,0
776211,8032,,Triangle Town Center Mall at Barnes & Noble,,35.86588,-78.57653,,,0,,America/New_York,,,0
776212,8033,,Capital Blvd at Sumner Blvd (SB),,35.865597,-78.582402,,,0,,America/New_York,,,0
776213,8034,,Capital Blvd at Oak Forest Dr (SB),,35.860742,-78.581924,,,0,,America/New_York,,,0
776214,8035,,Capital Blvd at Spring Forest Rd (SB),,35.853399,-78.581127,,,0,,America/New_York,,,0
776215,8036,,Capital Blvd at Millbrook Rd,,35.84906,-78.580702,,,0,,America/New_York,,,0
776216,8037,,Capital Blvd at Sumner Blvd (NB),,35.865702,-78.58194,,,0,,America/New_York,,,0
776217,8038,,Capital Blvd At Calvary Dr,,35.843724179188,-78.580112857311,,,0,,America/New_York,,,0
776218,8039,,Capital Blvd at Deana Dr,,35.83775,-78.58104,,,0,,America/New_York,,,0
776219,8040,,Capital Blvd at New Hope Church Rd,,35.83418,-78.58329,,,0,,America/New_York,,,0
776220,8041,,Capital Blvd at Greywood Dr (SB),,35.83234,-78.58436,,,0,,America/New_York,,,0
776221,8042,,Capital Blvd at Old Buffaloe Rd (SB),,35.82885,-78.58561,,,0,,America/New_York,,,0
776222,8043,,Capital Blvd at Mayflower Dr,,35.82521,-78.58696,,,0,,America/New_York,,,0
776223,8044,,Capital Blvd at Huntleigh Dr,,35.82087,-78.59201,,,0,,America/New_York,,,0
776224,8045,,Capital Blvd at Brentwood Rd (SB),,35.818687,-78.596864,,,0,,America/New_York,,,0
776226,8047,,Capital Blvd at Hodges St (SB),,35.810828,-78.612394,,,0,,America/New_York,,,0
776227,8048,,Capital Blvd at Crabtree Blvd (SB),,35.806917,-78.616121,,,0,,America/New_York,,,0
776228,8049,,Capital Blvd at Tillery Pl,,35.804238,-78.620105,,,0,,America/New_York,,,0
776230,8051,,Wake Forest Rd at Brookside Dr,,35.800177,-78.625555,,,0,,America/New_York,,,0
776232,8053,,Wake Forest Rd at Sycamore St,,35.797521,-78.629469,,,0,,America/New_York,,,0
776233,8054,,Wake Forest Rd at Chestnut St,,35.796172,-78.630363,,,0,,America/New_York,,,0
776235,8056,,N Blount St at Cedar St,,35.79395,-78.63569,,,0,,America/New_York,,,0
776236,8057,,N Blount St at Delway St,,35.79139,-78.63589,,,0,,America/New_York,,,0
776237,8058,,Salisbury St at Parking Deck,,35.7870544637976,-78.6396660024815,,,0,,America/New_York,,,0
776238,8059,,Salisbury St at Lane St,,35.785107,-78.639975,,,0,,America/New_York,,,0
776239,8061,,Salisbury St at W Jones St,,35.782714,-78.640038,,,0,,America/New_York,,,0
776240,8062,,Salisbury St at W Edenton St,,35.78158,-78.640078,,,0,,America/New_York,,,0
776241,8063,,Salisbury St at W Morgan St,,35.779922,-78.640177,,,0,,America/New_York,,,0
776243,8065,,Gorman St at Burt Dr,,35.776931,-78.687845,,,0,,America/New_York,,,0
776244,8066,,Gorman St at Marcom S,,35.77913,-78.68711,,,0,,America/New_York,,,0
776245,8070,,W Edenton St at S McDowell St,,35.781373,-78.642213,,,0,,America/New_York,,,0
776246,8071,,W Edenton St at S Harrington St,,35.781471,-78.644369,,,0,,America/New_York,,,0
776247,8072,,Glenwood Ave at Hillsborough St,,35.78123,-78.64743,,,0,,America/New_York,,,0
776249,8074,,Glenwood Ave at W Lane St,,35.784219,-78.647379,,,0,,America/New_York,,,0
776250,8075,,Glenwood Ave at Tucker St,,35.78666,-78.6472,,,0,,America/New_York,,,0
776252,8077,,Glenwood Ave at Devereux St,,35.78987,-78.64701,,,0,,America/New_York,,,0
776253,8078,,Glenwood Ave at Wills Forest St (NB),,35.791269,-78.646762,,,0,,America/New_York,,,0
776254,8079,,Glenwood Ave at Washington St (NB),,35.792841,-78.646605,,,0,,America/New_York,,,0
776255,8080,,Glenwood Ave at Jefferson St,,35.79507,-78.64628,,,0,,America/New_York,,,0
776256,8081,,Glenwood Ave at Cole St (NB),,35.796708,-78.646244,,,0,,America/New_York,,,0
776257,8082,,Glenwood Ave at Harvey St (NB),,35.800467,-78.645989,,,0,,America/New_York,,,0
776258,8084,,Whitaker Mill Rd at Fairview Rd (EB),,35.80423,-78.64504,,,0,,America/New_York,,,0
776259,8085,,Whitaker Mill Rd at Sunset Dr (EB),,35.8050823698435,-78.6425147346395,,,0,,America/New_York,,,0
776261,8088,,Whitaker Mill Rd at Sunrise Ave,,35.8065290972859,-78.6389789105639,,,0,,America/New_York,,,0
776263,8090,,Whitaker Mill Rd at Pine Dr,,35.8075686165396,-78.6362925279573,,,0,,America/New_York,,,0
776265,8092,,Whitaker Mill Rd at Center Rd,,35.8065837756923,-78.6325073931245,,,0,,America/New_York,,,0
776267,8094,,Whitaker Mill Rd at Pershing Rd,,35.8069145892227,-78.629233099452,,,0,,America/New_York,,,0
776268,8095,,Whitaker Mill Rd at Hilton St,,35.80709,-78.62661,,,0,,America/New_York,,,0
776269,8096,,Wake Forest Rd at Whitaker Mill Rd,,35.808067,-78.624829,,,0,,America/New_York,,,0
776270,8097,,Wake Forest Rd at Mills St,,35.810392,-78.625637,,,0,,America/New_York,,,0
776272,8099,,Wake Forest Rd at Hodges St (NB),,35.81515,-78.62615,,,0,,America/New_York,,,0
776274,8101,,Wake Forest Rd at Six Forks Rd (Costco),,35.819435,-78.62402,,,0,,America/New_York,,,0
776276,8103,,Wake Forest Rd at Wake Towne Dr (NB),,35.822628,-78.622482,,,0,,America/New_York,,,0
776277,8104,,Wake Forest Rd at Navaho Dr (NB),,35.827581,-78.620088,,,0,,America/New_York,,,0
776279,8108,,Wake Forest Rd at Dresser Ct (NB),,35.832348,-78.617536,,,0,,America/New_York,,,0
776281,8110,,Wake Forest Rd at New Hope Church Rd,,35.837342,-78.612987,,,0,,America/New_York,,,0
776283,8112,,Falls of Neuse Rd at Old Wake Forest Rd (NB),,35.841508,-78.611817,,,0,,America/New_York,,,0
776284,8113,,Falls of Neuse Rd at Pacific Dr,,35.84291,-78.61293,,,0,,America/New_York,,,0
776286,8115,,Falls of Neuse Rd at Cedarhurst Dr (NB),,35.848459,-78.61473,,,0,,America/New_York,,,0
776289,8118,,Falls of Neuse Rd at Quail Ridge Rd,,35.8520822022017,-78.6143395337295,,,0,,America/New_York,,,0
776292,8121,,Falls of Neuse Rd at Fairfax Dr (NB),,35.8573408552195,-78.6159303419633,,,0,,America/New_York,,,0
776293,8122,,Falls of Neuse Rd at Manassas Ct (NB),,35.8596028932647,-78.6175609193991,,,0,,America/New_York,,,0
776294,8123,,Falls of Neuse Rd at Falls Church Rd,,35.8621682776348,-78.6193157351419,,,0,,America/New_York,,,0
776296,8125,,Volant Dr at Carlos Dr,,35.86486,-78.61745,,,0,,America/New_York,,,0
776297,8126,,Carlos Dr at Falls of the Neuse Rd,,35.86465,-78.61895,,,0,,America/New_York,,,0
776298,8127,,Falls of Neuse Rd at Springfield Commons Dr,,35.867157105406,-78.6205767565551,,,0,,America/New_York,,,0
776299,8128,,Falls of Neuse Rd at Spring Forest Rd (NB),,35.8691637961491,-78.6209547340973,,,0,,America/New_York,,,0
776301,8130,,Falls of Neuse Rd at Sandy Forks Rd,,35.8732,-78.62227,,,0,,America/New_York,,,0
776303,8132,,Falls of Neuse Rd at Fox Hunt Ln,,35.87717,-78.62393,,,0,,America/New_York,,,0
776305,8134,,Falls of Neuse Rd at Harps Mill Rd (NB),,35.8814585575803,-78.6257677148599,,,0,,America/New_York,,,0
776306,8135,,Falls of Neuse Rd at Ravenscroft Dr (NB),,35.8846,-78.62683,,,0,,America/New_York,,,0
776307,8136,,Falls of Neuse Rd at Weathergreen Dr (NB),,35.8889199502227,-78.6273623313522,,,0,,America/New_York,,,0
776308,8137,,Mutual Ct at Strickland Rd,,35.892714,-78.628551,,,0,,America/New_York,,,0
776309,8138,,Exposition Pl at Falls of Neuse Rd,,35.890668,-78.628049,,,0,,America/New_York,,,0
776310,8139,,Falls of Neuse Rd at Weathergreen Dr,,35.88871,-78.62766,,,0,,America/New_York,,,0
776311,8140,,Falls of Neuse Rd at Ravenscroft Dr (SB),,35.884806,-78.627177,,,0,,America/New_York,,,0
776312,8141,,Falls of Neuse Rd at Harps Mill Rd (SB),,35.8807936917634,-78.6257311086018,,,0,,America/New_York,,,0
776313,8142,,Falls of Neuse Rd at Lake Forest Dr,,35.87688,-78.624032,,,0,,America/New_York,,,0
776314,8143,,Falls of Neuse Rd at Hunting Ridge Rd (Falls Village),,35.8742573639086,-78.622978781631,,,0,,America/New_York,,,0
776315,8144,,Falls of Neuse Rd at Spring Forest Rd (SB),,35.86914,-78.62124,,,0,,America/New_York,,,0
776316,8145,,Falls of Neuse Rd at Ridgefield Dr,,35.866,-78.62066,,,0,,America/New_York,,,0
776317,8146,,Falls of Neuse Rd at Logger Ct,,35.86354,-78.61998,,,0,,America/New_York,,,0
776318,8147,,Falls of Neuse Rd at North Bend Dr,,35.86104,-78.61926,,,0,,America/New_York,,,0
776319,8148,,Falls of Neuse Rd at Fairfax Dr (SB),,35.8566741022239,-78.6159423902042,,,0,,America/New_York,,,0
776320,8149,,Falls of Neuse Rd at Fireside Dr,,35.85431,-78.61509,,,0,,America/New_York,,,0
776322,8151,,Falls of Neuse Rd at E Millbrook Rd (SB),,35.851308,-78.61462,,,0,,America/New_York,,,0
776323,8152,,Falls of Neuse Rd at Cedarhurst Dr (SB),,35.849102,-78.614894,,,0,,America/New_York,,,0
776324,8153,,Falls of Neuse Rd at Pemberton Dr,,35.84467,-78.61462,,,0,,America/New_York,,,0
776325,8154,,Falls of Neuse Rd at Old Wake Forest Rd (SB),,35.841229,-78.61197,,,0,,America/New_York,,,0
776326,8155,,Wake Forest Rd at Ollie St,,35.8391,-78.61212,,,0,,America/New_York,,,0
776327,8156,,Wake Forest Rd at Hardimont Rd,,35.837537,-78.613144,,,0,,America/New_York,,,0
776328,8157,,Wake Forest Rd at Colby Dr,,35.835829,-78.614557,,,0,,America/New_York,,,0
776329,8158,,Wake Forest Rd at Dresser Ct (SB),,35.832776,-78.61747,,,0,,America/New_York,,,0
776330,8159,,Wake Forest Rd at St Albans Dr (Hilton Midtown),,35.830049,-78.619151,,,0,,America/New_York,,,0
776331,8160,,Wake Forest Rd at Navaho Dr (SB),,35.827523,-78.620415,,,0,,America/New_York,,,0
776332,8161,,Wake Forest Rd at Wake Towne Dr (SB),,35.823563,-78.622366,,,0,,America/New_York,,,0
776333,8163,,Wake Forest Rd at Six Forks Rd (Creekside Crossing),,35.818557,-78.624727,,,0,,America/New_York,,,0
776334,8164,,Wake Forest Rd at Hodges St (SB),,35.815488,-78.626266,,,0,,America/New_York,,,0
776335,8165,,Wake Forest Rd at McNeil St,,35.81346,-78.62677,,,0,,America/New_York,,,0
776336,8166,,McNeil St at Bernard St,,35.81442,-78.62891,,,0,,America/New_York,,,0
776337,8167,,Noble Rd at McNeil St,,35.81436,-78.63171,,,0,,America/New_York,,,0
776338,8168,,Noble Rd at Wayne Dr,,35.81251,-78.63317,,,0,,America/New_York,,,0
776339,8169,,Noble Rd at North of Pine Dr,,35.81007,-78.63507,,,0,,America/New_York,,,0
776340,8170,,Pine Dr at Whitaker Mill Rd,,35.807823,-78.636288,,,0,,America/New_York,,,0
776341,8171,,Whitaker Mill Rd at Reeves Dr,,35.80692,-78.63838,,,0,,America/New_York,,,0
776342,8172,,Whitaker Mill Rd at McCarthy St,,35.80555,-78.64153,,,0,,America/New_York,,,0
776343,8173,,Whitaker Mill Rd at Fairview Rd (WB),,35.80437,-78.64513,,,0,,America/New_York,,,0
776344,8174,,Glenwood Ave at Glen Ave,,35.803209,-78.646102,,,0,,America/New_York,,,0
776345,8175,,Glenwood Ave at Harvey St (SB),,35.800945,-78.646154,,,0,,America/New_York,,,0
776346,8177,,Glenwood Ave at Washington St (SB),,35.792813,-78.646883,,,0,,America/New_York,,,0
776347,8178,,Glenwood Ave at Wills Forest St (SB),,35.791135,-78.647044,,,0,,America/New_York,,,0
776348,8179,,Glenwood Ave at W Peace St,,35.788734,-78.647281,,,0,,America/New_York,,,0
776349,8180,,Glenwood Ave at W Johnson St,,35.787013,-78.647258,,,0,,America/New_York,,,0
776350,8182,,Glenwood Ave at W Jones St,,35.78293,-78.64749,,,0,,America/New_York,,,0
776351,9907,,West St at Hargett St (R13),R-Line stop R13,35.778639,-78.646105,,,0,,America/New_York,,,0
776352,8184,,Glenwood Ave at W Morgan St,,35.78013,-78.64777,,,0,,America/New_York,,,0
776353,8185,,W Morgan St at S Harrington St,,35.779731,-78.644524,,,0,,America/New_York,,,0
776354,8186,,W Morgan St at S Dawson St,,35.779678,-78.642898,,,0,,America/New_York,,,0
776355,8187,,E Morgan St at S Wilmington St,,35.779508,-78.63729,,,0,,America/New_York,,,0
776356,8188,,E Morgan St at S Person St,,35.77999,-78.63505,,,0,,America/New_York,,,0
776357,8192,,Glascock St at Clifton St (EB),,35.79305,-78.62767,,,0,,America/New_York,,,0
776358,8193,,Glascock St at Brookside Dr (EB),,35.79291,-78.62466,,,0,,America/New_York,,,0
776359,8194,,Glascock St at Raleigh Blvd,,35.79285,-78.61371,,,0,,America/New_York,,,0
776360,8195,,Raleigh Blvd at Cantwell Ct,,35.7940981296496,-78.6127915327112,,,0,,America/New_York,,,0
776361,8196,,Millbank St at Burgandy St,,35.7968174414535,-78.6098162098217,,,0,,America/New_York,,,0
776362,8197,,Millbank St at Euston St,,35.7974978155552,-78.6068805765382,,,0,,America/New_York,,,0
776364,8199,,Crabtree Blvd at Raleigh Blvd,,35.803517,-78.609129,,,0,,America/New_York,,,0
776365,8203,,Bennett St at Lion's Park,,35.795942136366,-78.6178301820391,,,0,,America/New_York,,,0
776366,8205,,Dennis Ave at Bennett St,,35.7987458653511,-78.6173773449136,,,0,,America/New_York,,,0
776367,8206,,Timber Dr at Barksdale Dr,,35.8031902440837,-78.6122974932194,,,0,,America/New_York,,,0
776368,8207,,Timber Dr at Crabtree Blvd,,35.805075,-78.612348,,,0,,America/New_York,,,0
776371,8217,,Glascock St at State St (WB),,35.7929022832865,-78.6208558429222,,,0,,America/New_York,,,0
776372,8218,,Glascock St at Brookside Dr (WB),,35.7930778949393,-78.6247310643565,,,0,,America/New_York,,,0
776373,8219,,Glascock St at Clifton St (WB),,35.793145871219,-78.6275570362082,,,0,,America/New_York,,,0
776374,8220,,Glascock St at Watauga St (WB),,35.7932,-78.62864,,,0,,America/New_York,,,0
776375,8228,,Hillsborough St at Glenwood Ave,,35.780870224178,-78.648550265614,,,0,,America/New_York,,,0
776377,8231,,Hillsborough St at St Marys St,"Located on Hillsborough St, just West of its intersection with St Mary's St and almost directly across from the State Employee's Credit Union.",35.7810330408711,-78.6512028232441,,,0,,America/New_York,,,0
776378,8232,,Hillsborough St at Mayo St (Saint Mary's School),,35.781853,-78.653634,,,0,,America/New_York,,,0
776379,8234,,Hillsborough St at Park Ave (WB),,35.7835334083986,-78.6562976113318,,,0,,America/New_York,,,0
776380,8235,,Hillsborough St at Forest Rd (WB),,35.784813,-78.659062,,,0,,America/New_York,,,0
776381,8237,,Hillsborough St at Enterprise St (North Hall),"Located at NCSU dormitory North Hall, just north-northwest of the intersection of Enterprise Street with Hillsborough Street; third lamppost along.",35.7868688854,-78.6644739832,,,0,,America/New_York,,,0
776382,8238,,Hillsborough St at Horne St (WB),,35.78793,-78.668456,,,0,,America/New_York,,,0
776383,8240,,Hillsborough St at Brooks Ave (WB),,35.788818011838,-78.672490904841,,,0,,America/New_York,,,0
776384,8241,,Hillsborough St at Dixie Trail,,35.789423,-78.675338,,,0,,America/New_York,,,0
776385,8242,,Dixie Trail at Clark Ave (NB),,35.792828185604,-78.675660077015,,,0,,America/New_York,,,0
776386,8243,,Dixie Trail at Fowler Ave,,35.7957500433503,-78.675918016771,,,0,,America/New_York,,,0
776387,8244,,Dixie Trail at Mayview Rd,,35.7975124640416,-78.6765092324461,,,0,,America/New_York,,,0
776388,8245,,Dixie Trail at O'Berry St (NB),,35.799732938234,-78.6762560989507,,,0,,America/New_York,,,0
776389,8246,,Wade Ave at Dogwood Ln,,35.801088,-78.680928,,,0,,America/New_York,,,0
776390,8247,,Wade Ave at Faircloth St,,35.801132,-78.683318,,,0,,America/New_York,,,0
776391,8248,,Ridge Rd at Wade Ave (NB),,35.802663,-78.687422,,,0,,America/New_York,,,0
776392,8249,,Ridge Rd at Lewis Farm Rd,,35.809468,-78.684818,,,0,,America/New_York,,,0
776393,8250,,Ridge Rd at Darien Dr,,35.8146,-78.68253,,,0,,America/New_York,,,0
776394,8251,,Lake Boone Tr at Thomas Rd,,35.81616,-78.68348,,,0,,America/New_York,,,0
776395,8252,,Lake Boone Tr at Horton St,,35.8155,-78.6891,,,0,,America/New_York,,,0
776396,8253,,Lake Boone Tr at Wycliff Rd,,35.81576,-78.69523,,,0,,America/New_York,,,0
776397,8254,,Rex Hospital (Outbound),,35.81691,-78.704585,,,0,,America/New_York,,,0
776398,8255,,Duraleigh Rd at Edwards Mill Rd (NB),,35.82314,-78.706,,,0,,America/New_York,,,0
776399,8256,,Edwards Mill Rd at Ed Dr,,35.825298,-78.70545,,,0,,America/New_York,,,0
776400,8263,,Lake Boone Tr at Myron Dr,,35.815681,-78.693753,,,0,,America/New_York,,,0
776402,8265,,Ridge Rd at Horton St,,35.811676,-78.684278,,,0,,America/New_York,,,0
776403,8266,,Ridge Rd at Anclote Pl,,35.805546,-78.686685,,,0,,America/New_York,,,0
776404,8267,,Ridge Rd at Wade Ave (SB),,35.802691,-78.687586,,,0,,America/New_York,,,0
776405,8268,,Wade Ave at Ridge Rd (Meredith College),,35.801491,-78.686649,,,0,,America/New_York,,,0
776406,8269,,Wade Ave at Dogwood Ln,,35.801025,-78.68074,,,0,,America/New_York,,,0
776407,8270,,Dixie Trail at O'Berry St (SB),,35.799838,-78.676358,,,0,,America/New_York,,,0
776408,8271,,Dixie Trail at Ruffin St,,35.79669,-78.67634,,,0,,America/New_York,,,0
776409,8272,,Dixie Trail at Clark Ave (SB),,35.792711,-78.675822,,,0,,America/New_York,,,0
776410,8273,,Hillsborough St at Friendly Dr,Shelter stop located just West of the intersection of Hillsborough Street with Friendly Drive; in front of the new Stanhope Student Apartments.,35.789555263646,-78.67649819773,,,0,,America/New_York,,,0
776411,8274,,Hillsborough St at Gardner St (NCSU),,35.788412,-78.67137,,,0,,America/New_York,,,0
776412,8276,,Hillsborough St at Horne St (EB),,35.787638,-78.667865,,,0,,America/New_York,,,0
776413,8277,,Hillsborough St at Enterprise St (NCSU Bell Tower),,35.786467,-78.663746,,,0,,America/New_York,,,0
776415,8280,,Hillsborough St at Forest Rd (EB),,35.784615,-78.659043,,,0,,America/New_York,,,0
776417,8290,,W Jones St at N Salisbury St,,35.782571,-78.640399,,,0,,America/New_York,,,0
776418,8291,,Rock Quarry Rd at Vardaman St,,35.77027,-78.61985,,,0,,America/New_York,,,0
776419,8292,,Rock Quarry Rd at Raleigh Blvd (SB),,35.76611,-78.61587,,,0,,America/New_York,,,0
776420,8293,,Rock Quarry Rd at Southeast Raleigh YMCA,,35.76105,-78.61394,,,0,,America/New_York,,,0
776421,8300,,Sanderford Rd at Rock Quarry Rd,,35.7505,-78.61196,,,0,,America/New_York,,,0
776422,8301,,Sanderford Rd at Altama Cir,,35.74534,-78.61399,,,0,,America/New_York,,,0
776425,8304,,Idlewood Village Dr at Sanderford Rd,,35.73899,-78.612513,,,0,,America/New_York,,,1
776426,8306,,Snowberry Dr at Oak Hill Ct,,35.738671,-78.614349,,,0,,America/New_York,,,0
776427,8307,,Savannah Dr at Quince Dr,,35.74023,-78.615521,,,0,,America/New_York,,,0
776428,8308,,Savannah Dr at Daytona Dr,,35.740259,-78.617627,,,0,,America/New_York,,,0
776429,8309,,Sylvester St at Seabrook Rd,,35.74165,-78.61947,,,0,,America/New_York,,,0
776430,8310,,Cross Link Rd at Crown Crossing Ln,,35.74472,-78.62342,,,0,,America/New_York,,,0
776431,8311,,Dandridge Dr at Elkhart Dr,,35.74762,-78.62345,,,0,,America/New_York,,,0
776432,8312,,Dandridge Dr at Newcombe Rd,,35.74947,-78.622646,,,0,,America/New_York,,,0
776434,8314,,Cross Link Rd at Merrik St,,35.7540349268289,-78.6142147604033,,,0,,America/New_York,,,0
776435,8315,,Rock Quarry Rd at Proctor St,,35.75514,-78.61227,,,0,,America/New_York,,,0
776436,8316,,Rock Quarry Rd at Central Wake High School,,35.76105,-78.61364,,,0,,America/New_York,,,0
776438,8318,,Rock Quarry Rd at Merrywood Dr,,35.769336847042,-78.617958886964,,,0,,America/New_York,,,0
776439,8319,,Rock Quarry Rd at Bart St (Helping Hand Mission),,35.771253811074,-78.620904093535,,,0,,America/New_York,,,0
776440,8320,,E Lenoir St at Rock Quarry Rd,,35.772464,-78.621763,,,0,,America/New_York,,,0
776443,8323,,E Lenoir St at Chavis Way,,35.77277,-78.63155,,,0,,America/New_York,,,0
776444,8324,,Crabtree Valley Ave at Edwards Mill Rd,,35.838693,-78.681022,,,0,,America/New_York,,,0
776445,8325,,Glenwood Ave at Creedmoor Rd,,35.843582,-78.681668,,,0,,America/New_York,,,0
776446,8328,,Deep Hollow Dr at Duraleigh Rd,,35.853,-78.71047,,,0,,America/New_York,,,0
776448,8330,,New Bern Ave at West Campus Dr (EB),,35.784464,-78.590762,,,0,,America/New_York,,,0
776449,8331,,Grove Barton Rd at Lynn Rd,,35.8711439980068,-78.7171346470652,,,0,,America/New_York,,,0
776450,8332,,Avent Ferry Rd at Centennial Pkwy (SB),,35.77699,-78.678749,,,0,,America/New_York,,,0
776451,8333,,Grove Barton Rd at Lynn Rd,,35.8712637011289,-78.7177133955793,,,0,,America/New_York,,,0
776453,8335,,Sunnybrook Rd at Kidd Rd,,35.7783731948295,-78.5834592564487,,,0,,America/New_York,,,0
776455,8337,,N Tarboro Rd at E Edenton St,,35.78023,-78.622303,,,0,,America/New_York,,,0
776456,8338,,Poole Rd at S Fisher St,,35.77831,-78.615745,,,0,,America/New_York,,,0
776458,8343,,McDowell St at Martin St,,35.776839,-78.641813,,,0,,America/New_York,,,0
776459,8344,,Bennett St at Glascock St,,35.792946,-78.618033,,,0,,America/New_York,,,0
776461,8348,,Glenwood Ave at Alexander Rd,,35.806544,-78.647165,,,0,,America/New_York,,,0
776462,8349,,Glenwood Ave at St Marys St (NB),,35.813498433769,-78.651411133496,,,0,,America/New_York,,,0
776463,8350,,Glenwood Ave at Argyle Dr,,35.815465,-78.653088,,,0,,America/New_York,,,0
776464,8351,,Glenwood Ave at Oberlin Rd (The Carolinian),,35.816481,-78.659451,,,0,,America/New_York,,,0
776465,8352,,Glenwood Ave at Oberlin Rd (NB),,35.816733,-78.660391,,,0,,America/New_York,,,0
776466,8353,,Glenwood Ave at Pasquatank Dr (NB),,35.825419,-78.665597,,,0,,America/New_York,,,0
776467,8354,,Glenwood at Women's Club Dr,,35.829466,-78.666484,,,0,,America/New_York,,,0
776468,8355,,Crabtree Valley Mall,,35.838068,-78.678078,,,0,,America/New_York,,,0
776469,8356,,Crabtree Valley Ave at Creedmoor Rd (NB),,35.8410398788828,-78.6840810899374,,,0,,America/New_York,,,0
776471,8358,,Glenwood Ave at Moorehead Dr,,35.845615,-78.68778,,,0,,America/New_York,,,0
776472,8359,,Glenwood Ave at Carolina Corporate,,35.8492550461457,-78.6923028358412,,,0,,America/New_York,,,0
776473,8360,,Glenwood Ave at Rembert Dr,,35.852054,-78.69631,,,0,,America/New_York,,,0
776475,8362,,Glenwood Ave at Deblyn Ave,,35.853405,-78.698237,,,0,,America/New_York,,,0
776476,8363,,Glenwood Ave at Holly Ridge Dr,,35.854909,-78.700398,,,0,,America/New_York,,,0
776477,8364,,Glenwood Ave at Munford Rd (Pleasant Valley Promenade),,35.856371,-78.702509,,,0,,America/New_York,,,0
776478,8365,,Glenwood Ave at Pleasant Valley Rd (Chili's),,35.858152,-78.705089,,,0,,America/New_York,,,0
776479,8366,,Townridge Shopping Center,,35.85992,-78.70718,,,0,,America/New_York,,,0
776480,8367,,Duraleigh Rd at Glenwood Ave,,35.861621,-78.712621,,,0,,America/New_York,,,0
776481,8368,,Duraleigh Rd at Pleasant Valley Rd,,35.860002,-78.71297,,,0,,America/New_York,,,0
776482,8369,,Duraleigh Rd at Delta Lake Dr,,35.856558,-78.712389,,,0,,America/New_York,,,0
776483,8370,,Deep Hollow Dr at St Giles St,,35.852831,-78.707636,,,0,,America/New_York,,,0
776484,8371,,St Giles St at Deep Hollow Dr,,35.854887,-78.706022,,,0,,America/New_York,,,0
776485,8372,,St Giles St at Oak Park Rd,,35.853888,-78.703198,,,0,,America/New_York,,,0
776486,8373,,Glenwood Ave Service Rd at Oak Park,,35.855277,-78.701782,,,0,,America/New_York,,,0
776487,8374,,Glenwood Ave at Holly Ridge Dr,,35.854575,-78.700541,,,0,,America/New_York,,,0
776488,8375,,Glenwood Ave at Glen Forest Dr,,35.853089,-78.698414,,,0,,America/New_York,,,0
776489,8376,,Glenwood Ave at Fairhill Dr,,35.852,-78.69683,,,0,,America/New_York,,,0
776490,8377,,Glenwood Ave at Fairhill Dr,,35.850757,-78.695113,,,0,,America/New_York,,,0
776491,8378,,Glenwood Ave at Bluestone Dr,,35.849289,-78.692986,,,0,,America/New_York,,,0
776492,8379,,Glenwood Ave at Beta Center (north),,35.847227,-78.69056,,,0,,America/New_York,,,0
776493,8380,,Glenwood Ave at Beta Center (south),,35.846074,-78.689187,,,0,,America/New_York,,,0
776494,8383,,Glenwood Ave at Women's Club Dr,,35.831241,-78.667249,,,0,,America/New_York,,,0
776495,8384,,Glenwood Ave at Tolar Pl,,35.828384,-78.666606,,,0,,America/New_York,,,0
776496,8385,,Glenwood Ave at Pasquatank Dr (SB),,35.826059,-78.666084,,,0,,America/New_York,,,0
776497,8386,,Glenwood Ave at Vick Ave,,35.824131,-78.665585,,,0,,America/New_York,,,0
776498,8387,,Glenwood Ave at Glen Eden Dr,,35.821779,-78.66461,,,0,,America/New_York,,,0
776499,8388,,Glenwood Ave at Oberlin Rd (SB),,35.816598,-78.660812,,,0,,America/New_York,,,0
776500,8389,,Glenwood Ave at Argyle Dr,,35.815869,-78.655478,,,0,,America/New_York,,,0
776501,8390,,Glenwood Ave at St Marys St (SB),,35.8119641625,-78.650744517397,,,0,,America/New_York,,,0
776502,8391,,Glenwood Ave at Woodland Ave,,35.809995,-78.649556,,,0,,America/New_York,,,0
776503,8392,,Glenwood Ave at Mrytle Ave,,35.807048,-78.647762,,,0,,America/New_York,,,0
776504,8396,,W Lenoir St at S West St,,35.773215,-78.646092,,,0,,America/New_York,,,0
776505,8398,,S Saunders St at Prospect Ave,,35.76316,-78.64919,,,0,,America/New_York,,,0
776506,8399,,S Saunders St at Gilbert Ave,,35.75964,-78.64932,,,0,,America/New_York,,,0
776507,8400,,S Saunders St at Hubert St,,35.75759,-78.64927,,,0,,America/New_York,,,0
776508,8404,,S Saunders St at Chapanoke Rd,,35.735946,-78.650621,,,0,,America/New_York,,,0
776509,8405,,S Saunders St at Olympia Dr,,35.733829,-78.650977,,,0,,America/New_York,,,0
776510,8408,,Garner Station Blvd at South Station (Big Lots),,35.72471,-78.65527,,,0,,America/New_York,,,0
776511,8409,,Garner Station Blvd at Fayetteville Rd (Goodberry's),,35.724713,-78.653261,,,0,,America/New_York,,,0
776513,8411,,Garner Station Blvd at Rupert Rd,"Just South of junction of Lenoxplace Cir with Garner Station Blvd (not sure where Rupert Rd comes in to it), very near where sidewalk ends.",35.7222538288814,-78.6626283757863,,,0,,America/New_York,,,0
776514,8412,,S Wilmington St at Mechanical Blvd,,35.72496,-78.65038,,,0,,America/New_York,,,0
776515,8413,,Wilmington St Service Rd at Mechanical Blvd,,35.7270614502627,-78.6491809325409,,,0,,America/New_York,,,0
776516,8414,,Wilmington St Service Rd at Tryon Rd,,35.73045,-78.65011,,,0,,America/New_York,,,0
776517,8415,,Wilmington St Service Rd at Chapanoke Rd,,35.73536,-78.64897,,,0,,America/New_York,,,0
776518,8416,,S Saunders St at Illeagnes St,,35.744193455165,-78.648677084647,,,0,,America/New_York,,,0
776519,8418,,S Saunders St at Pecan Rd,,35.74955,-78.64875,,,0,,America/New_York,,,0
776520,8419,,S Saunders St at Penmarc Dr,,35.7578,-78.64897,,,0,,America/New_York,,,0
776521,8420,,S Saunders St at Maywood Ave,,35.7605747043732,-78.6490282070517,,,0,,America/New_York,,,0
776522,8421,,S Saunders St at Dorothea Dr,,35.771142,-78.647961,,,0,,America/New_York,,,0
776523,8422,,South St at West St,,35.772259207122,-78.646127114094,,,0,,America/New_York,,,0
776524,8434,,St Marys St at Hillsborough St (NB),,35.7812,-78.650431,,,0,,America/New_York,,,0
776526,8436,,St Marys St at North St (NB),,35.7852655594127,-78.6506690219156,,,0,,America/New_York,,,0
776527,8437,,St Marys St at Peace St (NB),,35.78911,-78.65106,,,0,,America/New_York,,,0
776528,8438,,St Marys St at Clay St (NB),,35.791636,-78.65196,,,0,,America/New_York,,,0
776529,8439,,St Marys St at Nichols Dr,,35.79438,-78.65322,,,0,,America/New_York,,,0
776530,8440,,St Marys St at Wade Ave (NB),,35.7970753853358,-78.6526811688352,,,0,,America/New_York,,,0
776531,8441,,St Marys St at Williamson Dr (NB),,35.7986381108131,-78.652939829742,,,0,,America/New_York,,,0
776532,8442,,St Mary's St at Iredell Dr,,35.801654,-78.653521,,,0,,America/New_York,,,0
776533,8443,,St Mary's St at Harvey St,,35.80406,-78.65352,,,0,,America/New_York,,,0
776534,8444,,St Mary's St at Stone St,,35.80623,-78.654222,,,0,,America/New_York,,,0
776535,8445,,St Mary's St at Fairview Rd,,35.80881,-78.65367,,,0,,America/New_York,,,0
776537,8447,,Lassiter Mill Rd at Millstream Pl,,35.82482,-78.64946,,,0,,America/New_York,,,0
776539,8449,,Midtown - North Hills Mall (North State Bank),,35.837414,-78.641749,,,0,,America/New_York,,,0
776540,8450,,Midtown - North Hills Mall (Bank of America),,35.837138959376,-78.641669303078,,,0,,America/New_York,,,0
776541,8451,,Six Forks Rd at Rowan St,,35.84275,-78.64318,,,0,,America/New_York,,,0
776542,8452,,Six Forks Rd at Capital Towers,,35.845908,-78.644063,,,0,,America/New_York,,,0
776543,8453,,Six Forks Rd at North Glenn Dr (OB),,35.8483514435117,-78.644147689096,,,0,,America/New_York,,,0
776545,8455,,W Millbrook Rd at Six Forks Rd,,35.85633,-78.64218,,,0,,America/New_York,,,0
776547,8457,,W Millbrook Rd at Snelling Rd,,35.85636,-78.64557,,,0,,America/New_York,,,0
776554,8470,,Six Forks Rd at Loft Ln,,35.85928,-78.63942,,,0,,America/New_York,,,0
776555,8471,,Six Forks Rd at W Millbrook Rd,,35.85669,-78.64102,,,0,,America/New_York,,,0
776556,8472,,Six Forks Rd at Snelling Rd,,35.85415,-78.64238,,,0,,America/New_York,,,0
776557,8473,,Six Forks Rd at Shelley Rd,,35.85128,-78.64338,,,0,,America/New_York,,,0
776558,8474,,Six Forks Rd at Cranbrook Rd,,35.84833,-78.64431,,,0,,America/New_York,,,0
776559,8475,,Six Forks Rd at Trinity Baptist Church,,35.84608,-78.64429,,,0,,America/New_York,,,0
776561,8477,,Six Forks Rd at Rowan St,,35.84173,-78.6431,,,0,,America/New_York,,,0
776563,8480,,Lassiter Mill Rd at Marlowe Rd,,35.82908,-78.64848,,,0,,America/New_York,,,0
776564,8481,,Lassiter Mill Rd at Millstream Pl,,35.82462,-78.64983,,,0,,America/New_York,,,0
776565,8482,,Lassiter Mill Rd at Scotland St,,35.82279,-78.65122,,,0,,America/New_York,,,0
776567,8484,,St Mary's St at Fairview Rd,,35.80909,-78.65373,,,0,,America/New_York,,,0
776568,8485,,St Mary's St at Colonial Rd,,35.80606,-78.65443,,,0,,America/New_York,,,0
776569,8486,,St Mary's St at Craig St,,35.80273,-78.65381,,,0,,America/New_York,,,0
776570,8487,,St Marys St at Wade Ave (Employment Sec Comm),,35.79706,-78.65278,,,0,,America/New_York,,,0
776571,8488,,St Marys St at Wade Ave (SB),,35.7949644560986,-78.6531957714021,,,0,,America/New_York,,,0
776573,8490,,St Marys St at Clay St (SB),,35.79246,-78.65284,,,0,,America/New_York,,,0
776575,8493,,St Marys St at Peace St (SB),,35.7889049754054,-78.6511236441803,,,0,,America/New_York,,,0
776576,8494,,St Marys St at North St (Wiley School),,35.785147,-78.650764,,,0,,America/New_York,,,0
776578,8497,,E Lane St at Idlewild Ave,,35.783339,-78.625765,,,0,,America/New_York,,,0
776579,8498,,Oakwood Ave at Tarboro St (EB),,35.7841856499763,-78.6210184016962,,,0,,America/New_York,,,0
776580,8499,,Oakwood Ave at St Augustine Ave,,35.784114,-78.619472,,,0,,America/New_York,,,0
776584,8503,,Milburnie Rd at Colleton Rd,,35.788205,-78.612171,,,0,,America/New_York,,,0
776585,8504,,Milburnie Rd at N King Charles Rd,,35.788692,-78.609748,,,0,,America/New_York,,,0
776586,8505,,N King Charles Rd at Glascock St,,35.792288,-78.609438,,,0,,America/New_York,,,0
776587,8506,,Glascock St at Brighton Rd,,35.792558,-78.607447,,,0,,America/New_York,,,0
776588,8507,,Glascock St at Marlborough Rd,,35.792251,-78.604825,,,0,,America/New_York,,,0
776590,8509,,Glascock St at Culpepper Ln,,35.791485,-78.601418,,,0,,America/New_York,,,0
776591,8510,,Milburne Rd at Culpepper Ln,,35.789142,-78.602459,,,0,,America/New_York,,,0
776592,8511,,Milburne Rd at Hapmstead Pl,,35.788528,-78.600512,,,0,,America/New_York,,,0
776593,8512,,Milburne Rd at Chatham Ln,,35.787789,-78.598499,,,0,,America/New_York,,,0
776594,8513,,Chatham Ln at Stevens Rd,,35.786671,-78.598588,,,0,,America/New_York,,,0
776595,8514,,Chatham Ln at Bertie Dr,,35.785419,-78.598964,,,0,,America/New_York,,,0
776596,8515,,Bertie Dr at Culpepper Ln,,35.786411,-78.603001,,,0,,America/New_York,,,0
776597,8516,,Bertie Dr at Locke Ln,,35.7861,-78.60698,,,0,,America/New_York,,,0
776598,8517,,Oakwood Ave at N King Charles Rd,,35.783573,-78.611276,,,0,,America/New_York,,,0
776599,8518,,Oakwood Ave at Fisher St,,35.784168,-78.614727,,,0,,America/New_York,,,0
776600,8519,,Oakwood Ave at Hill St,,35.784213,-78.617735,,,0,,America/New_York,,,0
776601,8520,,Oakwood Ave at Tarboro St (St Augustine's University),,35.784312,-78.620589,,,0,,America/New_York,,,0
776602,8521,,Tarboro Rd at E Lane St,,35.783537,-78.622248,,,0,,America/New_York,,,0
776603,8522,,E Lane St at Seawell Ave,,35.783555,-78.627015,,,0,,America/New_York,,,0
776604,8523,,Western Blvd at Hunt Dr (Governor Morehead School),,35.7755674078701,-78.6587810262206,,,0,,America/New_York,,,0
776605,8524,,Western Blvd at Ashe Ave,,35.7776670346683,-78.6622361142989,,,0,,America/New_York,,,0
776606,8525,,Morrill Dr at Carmichael Gym,,35.7823624719,-78.6713188433,,,0,,America/New_York,,,0
776607,8526,,Avent Ferry Rd at Western Blvd (Avent Ferry Complex),,35.7800731694,-78.6762469992,,,0,,America/New_York,,,0
776609,8528,,Avent Ferry Rd at Varsity Dr (Carolyn Apts),,35.77511262308,-78.681522538404,,,0,,America/New_York,,,0
776610,8529,,Avent Ferry Rd at Crest Rd,,35.7716308289754,-78.6863857837729,,,0,,America/New_York,,,0
776611,8530,,Avent Ferry Rd at Brigadoon Dr 2,"Located WSW of junction of Brigadoon Drive with Avent Ferry Road (farthest from Western Boulevard), heading in WSW direction (towards Avent Ferry Shopping Center); just before guardrails.",35.7702707652949,-78.6891418789315,,,0,,America/New_York,,,0
776613,8532,,Gorman St at Avent Ferry Rd (SB),,35.76753,-78.69435,,,0,,America/New_York,,,0
776614,8533,,Gorman St at Walnut Creek Greenway (SB),,35.765342449768,-78.694470315212,,,0,,America/New_York,,,0
776615,8534,,Gorman St at Walnut Creek Pkwy,,35.7576695441861,-78.6998900526531,,,0,,America/New_York,,,0
776616,8535,,Thistledown Dr at Gorman St (EB),,35.756191,-78.69943,,,0,,America/New_York,,,0
776617,8536,,Thistledown Dr at Lethbridge Ct,,35.7550315254826,-78.6956754361914,,,0,,America/New_York,,,0
776619,8538,,Lineberry Dr at University Woods Rd,,35.750251156124,-78.6938090411428,,,0,,America/New_York,,,0
776620,8539,,Lineberry Dr at Pauls Penny,,35.75036,-78.69219,,,0,,America/New_York,,,0
776621,8540,,Lineberry Dr at Leadenhall Way,,35.7499856739159,-78.6868270074444,,,0,,America/New_York,,,0
776622,8541,,Lineberry Dr at Mountain Mist Ct,,35.75036,-78.68456,,,0,,America/New_York,,,0
776623,8542,,Lineberry Dr at Sterling Park Dr,,35.75096,-78.6823,,,0,,America/New_York,,,0
776624,8543,,Sierra Dr at Lake Wheeler Rd,,35.7508782378197,-78.669014320439,,,0,,America/New_York,,,0
776625,8544,,Gorman St at Avent Ferry Rd (NB),,35.767716,-78.694119,,,0,,America/New_York,,,0
776627,8546,,Sierra Dr at Rabbit Run,,35.74949,-78.66403,,,0,,America/New_York,,,0
776628,8554,,Thistledown Dr at Trailwood Dr,,35.7546372688826,-78.6946112279702,,,0,,America/New_York,,,0
776629,8555,,Thistledown Dr at Nesfield Ct,,35.75579,-78.69669,,,0,,America/New_York,,,0
776630,8556,,Thistledown Dr at Gorman St (WB),,35.756392,-78.699706,,,0,,America/New_York,,,0
776631,8557,,Gorman St at Shire Ln,,35.7622456184,-78.6955515024,,,0,,America/New_York,,,0
776632,8558,,Gorman St at Walnut Creek Greenway (NB),,35.765271960632,-78.694213112375,,,0,,America/New_York,,,0
776633,8559,,S Boylan Ave at Dorothea Dr (Inbound),,35.7717734576069,-78.6525283127426,,,0,,America/New_York,,,0
776635,8561,,Avent Ferry Rd at Trailwood Dr (EB),,35.769295865727,-78.690771837382,,,0,,America/New_York,,,0
776636,8562,,Avent Ferry Rd at Brigadoon Dr (EB),,35.771140172844,-78.686960550283,,,0,,America/New_York,,,0
776638,8564,,Avent Ferry Rd at Centennial View Ln,,35.773279902089,-78.683141071136,,,0,,America/New_York,,,0
776639,8565,,Avent Ferry Rd at Centennial Pkwy (NB),,35.776885,-78.678502,,,0,,America/New_York,,,0
776640,8566,,Avent Ferry Rd at Western Blvd,,35.7793218359698,-78.6765578041159,,,0,,America/New_York,,,0
776641,8567,,Morrill Dr at Cates Ave (NB),,35.781981944,-78.6713572485,,,0,,America/New_York,,,0
776642,8568,,Western Blvd at Bilyeu St,,35.7775257415314,-78.6625020675241,,,0,,America/New_York,,,0
776643,8569,,Western Blvd at Hunt Dr (EB),,35.7745570412203,-78.6564286180968,,,0,,America/New_York,,,0
776644,8570,,South St at Florence St,,35.7724719229597,-78.6502579512361,,,0,,America/New_York,,,0
776645,8571,,Peace St at Seaboard Station Dr (R9),,35.788182,-78.639314,,,0,,America/New_York,,,0
776646,8572,,Peace St at Capital Blvd,,35.78836,-78.6419,,,0,,America/New_York,,,0
776647,8573,,W Peace St at Glenwood Ave (WB),,35.788704,-78.647574,,,0,,America/New_York,,,0
776648,8574,,Peace St at St Marys St (WB),,35.78872,-78.65125,,,0,,America/New_York,,,0
776650,8576,,Bellwood Dr at Cameron St,,35.790886,-78.657326,,,0,,America/New_York,,,0
776651,8577,,Cameron St at Woodburn Rd (WB),,35.79103,-78.658852,,,0,,America/New_York,,,0
776652,8578,,Cameron St at Daniels St (WB),,35.790984,-78.660788,,,0,,America/New_York,,,0
776653,8584,,Hillsborough St at Shepherd St,,35.790164,-78.678454,,,0,,America/New_York,,,0
776654,8585,,Hillsborough St at Furches St,,35.792332,-78.682154,,,0,,America/New_York,,,0
776655,8586,,Hillsborough St at Faircloth St,,35.793327,-78.684042,,,0,,America/New_York,,,0
776656,8587,,Hillsborough St at Meredith College (WB),,35.794375634,-78.6884776035,,,0,,America/New_York,,,0
776657,8588,,Beryl Rd at Method Rd,,35.79455,-78.69276,,,0,,America/New_York,,,0
776660,8591,,Kent Rd at Perserverance Ct,,35.781875,-78.693844,,,0,,America/New_York,,,0
776661,8592,,Kent Rd at Warwick Dr,,35.779739,-78.693864,,,0,,America/New_York,,,0
776662,8593,,Kent Rd at Trexler Ct,,35.7744678432624,-78.6926003052688,,,0,,America/New_York,,,0
776663,8594,,Gorman St at Conifer Dr,,35.7743304596367,-78.6891378150384,,,0,,America/New_York,,,0
776664,8595,,Gorman St at McKimmon Center,,35.7835865192,-78.6870155738,,,0,,America/New_York,,,0
776665,8596,,Gorman St at Lexington Dr,,35.78602,-78.68698,,,0,,America/New_York,,,0
776666,8597,,Hillsborough St at Turner St,,35.79222,-78.682262,,,0,,America/New_York,,,0
776667,8598,,Hillsborough St at Stanhope Ave,,35.790958,-78.680158,,,0,,America/New_York,,,0
776669,8601,,Method Rd at Ligon St,,35.78941,-78.6939,,,0,,America/New_York,,,0
776670,8608,,W Peace St at Glenwood Ave (EB),,35.78859,-78.64785,,,0,,America/New_York,,,0
776672,8610,,Peace St at West St,,35.788576,-78.644637,,,0,,America/New_York,,,0
776673,8612,,St Marys St at Hillsborough St (SB),,35.781106462148,-78.6506331888677,,,0,,America/New_York,,,0
776674,8614,,New Bern Ave at S Swain St,,35.780019,-78.628772,,,0,,America/New_York,,,0
776675,8618,,New Bern Ave at S East St,,35.78009,-78.63205,,,0,,America/New_York,,,0
776676,8619,,New Bern Ave at Idlewild Ave,,35.77992,-78.62568,,,0,,America/New_York,,,0
776677,8620,,New Bern Ave at S Tarboro St,,35.779822,-78.623152,,,0,,America/New_York,,,0
776679,8622,,New Bern Ave at Sunbury St,,35.7797554343083,-78.6181835394163,,,0,,America/New_York,,,0
776680,8623,,New Bern Ave at Carver St,,35.77987,-78.61605,,,0,,America/New_York,,,0
776681,8624,,New Bern Ave at Raleigh Blvd (EB),,35.779761,-78.613156,,,0,,America/New_York,,,0
776682,8625,,New Bern Ave at Russ St,,35.7796,-78.60914,,,0,,America/New_York,,,0
776683,8626,,New Bern Ave at N Lord Ashley Rd,,35.77954,-78.60677,,,0,,America/New_York,,,0
776684,8627,,New Bern Ave at Lord Berkley Rd,,35.7796734400059,-78.6041639355993,,,0,,America/New_York,,,0
776686,8629,,New Bern Ave at Dickens Dr (EB),,35.77991,-78.59956,,,0,,America/New_York,,,0
776687,8630,,New Bern Ave at Donald Ross Dr,,35.782740972794,-78.5926803814126,,,0,,America/New_York,,,0
776688,8631,,West Campus Dr at Galahad Dr,,35.78367,-78.588958,,,0,,America/New_York,,,0
776689,8632,,WakeMed at Wake Tech,,35.78434,-78.58632,,,0,,America/New_York,,,0
776690,8633,,WakeMed at the Andrews Center,,35.78625,-78.58792,,,0,,America/New_York,,,0
776691,8634,,Calumet Dr at Sunnybrook Rd,,35.78772,-78.58661,,,0,,America/New_York,,,0
776692,8635,,Calumet Dr at Roselle Ct,,35.788804,-78.583543,,,0,,America/New_York,,,0
776693,8636,,Calumet Dr at Govenor's Forest Apt,,35.788271,-78.580734,,,0,,America/New_York,,,0
776694,8637,,Holston Ln at Calumet Dr,,35.78602,-78.58071,,,0,,America/New_York,,,0
776695,8638,,Holston Ln at Sunnybrook Rd,,35.7854,-78.58367,,,0,,America/New_York,,,0
776696,8639,,Sunnybrook Rd at Falstaff Rd,,35.78294,-78.58357,,,0,,America/New_York,,,0
776697,8640,,Falstaff Rd at Sunnybrook Rd,,35.782224,-78.583757,,,0,,America/New_York,,,0
776698,8641,,Falstaff Rd at Swinburne Rd,,35.78182,-78.58556,,,0,,America/New_York,,,0
776699,8642,,Swinburne Rd at Kidd Rd (WCDSS),,35.779206,-78.585074,,,0,,America/New_York,,,0
776700,8644,,New Bern Ave at West Campus Dr (WB),,35.784568,-78.591145,,,0,,America/New_York,,,0
776701,8645,,New Bern Ave at N Peartree Ln,,35.7835,-78.5923,,,0,,America/New_York,,,0
776702,8647,,New Bern Ave at Dickens Dr (WB),,35.78009,-78.60059,,,0,,America/New_York,,,0
776703,8648,,New Bern Ave at Clarendon Cresent,,35.78003,-78.60271,,,0,,America/New_York,,,0
776705,8650,,New Bern Ave at N King Charles Rd,,35.77977,-78.60855,,,0,,America/New_York,,,0
776706,8651,,New Bern Ave at Bertie Dr,,35.7799,-78.61145,,,0,,America/New_York,,,0
776707,8652,,New Bern Ave at Raleigh Blvd (WB),,35.78008,-78.61421,,,0,,America/New_York,,,0
776708,8653,,New Bern Ave at Hill St,,35.78009,-78.61792,,,0,,America/New_York,,,0
776709,8654,,E Edenton St at N Tarboro St,,35.780565,-78.621888,,,0,,America/New_York,,,0
776711,8656,,E Edenton St at Idlewild Ave,,35.78083,-78.62634,,,0,,America/New_York,,,0
776713,8658,,E Edenton St at Ray St,,35.78095,-78.62959,,,0,,America/New_York,,,0
776714,8659,,E Edenton St at N East St,,35.78101,-78.63204,,,0,,America/New_York,,,0
776715,8660,,E Edenton St at N Person St,,35.78109,-78.63457,,,0,,America/New_York,,,0
776717,8662,,E Edenton St at N Wilmington St,,35.781249,-78.637853,,,0,,America/New_York,,,0
776718,8667,,Edwards Mill Rd at John Humphries Wynd,,35.825386,-78.705689,,,0,,America/New_York,,,0
776719,8668,,Rex Hospital (Inbound),,35.816915,-78.704752,,,0,,America/New_York,,,0
776720,8669,,St Mary's St at Wedgedale Dr,,35.81789,-78.65136,,,0,,America/New_York,,,0
776721,8670,,Lake Boone Tr at Horton St,,35.815323,-78.689603,,,0,,America/New_York,,,0
776722,8671,,St Mary's St at Wedgedale Dr,,35.8176,-78.65093,,,0,,America/New_York,,,0
776724,8673,,Martin Luther King Jr Blvd at S State St (EB),,35.767691,-78.624529,,,0,,America/New_York,,,0
776725,8674,,Martin Luther King Jr Blvd at Coleman St (EB),,35.767684,-78.623,,,0,,America/New_York,,,0
776726,8675,,Martin Luther King Jr Blvd at Vardaman St,,35.767891308717,-78.6198372584386,,,0,,America/New_York,,,0
776727,8676,,Martin Luther King Jr Blvd at Rock Quarry Rd (EB),,35.768829,-78.616911,,,0,,America/New_York,,,0
776728,8677,,Creedmoor Rd at Magellan Way (NB),,35.862824,-78.680631,,,0,,America/New_York,,,0
776729,8683,,Creedmoor Rd at Marriott Dr,,35.845619,-78.680032,,,0,,America/New_York,,,0
776730,8684,,Creedmoor Rd at Tall Timber Dr (NB),,35.850846,-78.680179,,,0,,America/New_York,,,0
776731,8685,,Creedmoor Rd at Plaza Pl (NB),,35.857669,-78.680361,,,0,,America/New_York,,,0
776733,8687,,Creedmoor Rd at Jefferys Grove School Rd (NB),,35.87017,-78.67975,,,0,,America/New_York,,,0
776734,8688,,Creedmoor Rd at Kendricks Ct,,35.878281,-78.678704,,,0,,America/New_York,,,0
776735,8689,,Creedmoor Rd at Sawmill Rd (NB),,35.883211,-78.678985,,,0,,America/New_York,,,0
776736,8690,,Creedmoor Rd at Stonehenge Dr (NB),,35.887023,-78.679442,,,0,,America/New_York,,,0
776737,8691,,Creedmoor Rd at Morgans Way (NB),,35.894503,-78.680211,,,0,,America/New_York,,,0
776738,8692,,Creedmoor Rd at Lodestar Dr (NB),,35.896988,-78.680485,,,0,,America/New_York,,,0
776739,8693,,Brennan Dr at Creedmoor Rd (Towne North Shopping Center),,35.899792,-78.6817,,,0,,America/New_York,,,0
776740,8694,,Creedmoor Rd at Morgans Way (SB),,35.89348,-78.68038,,,0,,America/New_York,,,0
776741,8695,,Creedmoor Rd at Howard Rd,,35.889104,-78.67993,,,0,,America/New_York,,,0
776742,8696,,Creedmoor Rd at Stonehenge Dr (SB),,35.885806,-78.679585,,,0,,America/New_York,,,0
776743,8697,,Creedmoor Rd at Sawmill Rd (SB),,35.882589,-78.679228,,,0,,America/New_York,,,0
776744,8698,,Creedmoor Rd at Mapleton Ln,,35.877929,-78.679047,,,0,,America/New_York,,,0
776745,8699,,Creedmoor Rd at Lynn Rd (SB),,35.872431,-78.679741,,,0,,America/New_York,,,0
776746,8700,,Creedmoor Rd at Jefferyss Grove School Rd (SB),,35.865555,-78.680644,,,0,,America/New_York,,,0
776747,8701,,Creedmoor Rd at Magellan Way (SB),,35.862959,-78.68093,,,0,,America/New_York,,,0
776748,8702,,Creedmoor Rd at Plaza Pl (SB),,35.858236,-78.680772,,,0,,America/New_York,,,0
776749,8703,,Creedmoor Rd at Tall Timber Dr (SB),,35.849945,-78.680522,,,0,,America/New_York,,,0
776750,8704,,Creedmoor Rd at Isabella Cannon Dr,,35.847332,-78.680442,,,0,,America/New_York,,,0
776751,8705,,Creedmoor Rd at Glenwood Ave,,35.842125,-78.683085,,,0,,America/New_York,,,0
776752,8706,,Crabtree Valley Ave at Creedmoor Rd (SB),,35.841003,-78.684245,,,0,,America/New_York,,,0
776753,8707,,Creedmoor Rd at Jefferys Grove School Rd (Beverly Medical Center),,35.865699,-78.680312,,,0,,America/New_York,,,0
776754,8708,,Peace St at West St,,35.78879,-78.64509,,,0,,America/New_York,,,0
776756,8712,,Millbrook Rd at Lead Mine Rd (EB),,35.856474,-78.671227,,,0,,America/New_York,,,0
776757,8713,,Millbrook Rd at Paces Forest Ct (EB),,35.857406,-78.66848,,,0,,America/New_York,,,0
776758,8714,,W Millbrook Rd at Oldetowne Rd,,35.85743,-78.66605,,,0,,America/New_York,,,0
776759,8715,,W Millbrook Rd at North Hills Dr,,35.8564,-78.65602,,,0,,America/New_York,,,0
776760,8716,,W Millbrook Rd at Dixon Dr,,35.8562,-78.6502,,,0,,America/New_York,,,0
776761,8717,,W Millbrook Rd at Snelling Rd,,35.856128,-78.645646,,,0,,America/New_York,,,0
776762,8718,,W Millbrook Rd at Six Forks Rd,,35.856,-78.6428,,,0,,America/New_York,,,0
776763,8719,,E Millbrook Rd at Six Forks Rd,,35.85581,-78.64088,,,0,,America/New_York,,,0
776764,8720,,E Millbrook Rd at Farley Dr,,35.8539,-78.63645,,,0,,America/New_York,,,0
776765,8721,,E Millbrook Rd at Edgewood Dr,,35.85173,-78.63367,,,0,,America/New_York,,,0
776766,8722,,E Millbrook Rd at Flint Ridge Pl,,35.85143,-78.62902,,,0,,America/New_York,,,0
776767,8723,,E Millbrook Rd at Dantree Pl,,35.85142,-78.62458,,,0,,America/New_York,,,0
776768,8724,,E Millbrook Rd at Quail Meadows Dr,,35.85053,-78.61943,,,0,,America/New_York,,,0
776769,8725,,E Millbrook Rd at Falls of Neuse Rd (Quail Corners),,35.85053,-78.61564,,,0,,America/New_York,,,0
776771,8727,,E Millbrook Rd at Professional Ct,,35.8500767094104,-78.6091968876252,,,0,,America/New_York,,,0
776772,8728,,Millbrook Rd at Old Wake Forest Rd,,35.84991,-78.60562,,,0,,America/New_York,,,0
776773,8729,,E Millbrook Rd at Atlantic Ave (EB),,35.849406,-78.602852,,,0,,America/New_York,,,0
776774,8730,,E Millbrook Rd at Leafcrest Ct,,35.8485,-78.59945,,,0,,America/New_York,,,0
776775,8731,,E Millbrook Rd at Departure Dr,,35.84805,-78.5964,,,0,,America/New_York,,,0
776776,8732,,E Millbrook Rd at Hoyle Dr,,35.84781,-78.59218,,,0,,America/New_York,,,0
776777,8733,,E Millbrook Rd at Green Rd (EB),,35.84922,-78.58738,,,0,,America/New_York,,,0
776778,8734,,E Millbrook Rd at Signett Dr,,35.849459,-78.58388,,,0,,America/New_York,,,0
776779,8736,,New Hope Rd at Wallingford Dr,,35.8488,-78.57557,,,0,,America/New_York,,,0
776780,8737,,New Hope Rd at Tapers Dr,,35.84713,-78.57502,,,0,,America/New_York,,,0
776781,8738,,New Hope Rd at Rolling Green Ct,,35.8456,-78.57473,,,0,,America/New_York,,,0
776782,8739,,Calvary Dr at Capital Blvd (Mini City Marketplace),,35.844504,-78.57869,,,0,,America/New_York,,,0
776783,8740,,Calvary Dr at Capital Blvd (WB),,35.844676,-78.580589,,,0,,America/New_York,,,0
776784,8741,,E Millbrook Rd at Cedarhurst Rd (EB),,35.850415,-78.613665,,,0,,America/New_York,,,0
776785,8742,,E Millbrook Rd at Green Rd (WB),,35.849437,-78.587866,,,0,,America/New_York,,,0
776786,8743,,E Millbrook Rd at Hargrove Rd,,35.848306,-78.591212,,,0,,America/New_York,,,0
776787,8744,,E Millbrook Rd at Departure Dr,,35.848194,-78.595801,,,0,,America/New_York,,,0
776788,8745,,E Millbrook Rd at Atlantic Ave (WB),,35.848719,-78.599614,,,0,,America/New_York,,,0
776789,8746,,E Millbrook Rd at Old Wake Forest R,,35.85024,-78.60601,,,0,,America/New_York,,,0
776790,8747,,E Millbrook Rd at Professional Ct,,35.8503,-78.60865,,,0,,America/New_York,,,0
776791,8748,,E Millbrook Rd at Cedarhurst Dr (WB),,35.8504,-78.61254,,,0,,America/New_York,,,0
776792,8750,,E Millbrook Rd at Quail Meadows Dr,,35.85103,-78.61993,,,0,,America/New_York,,,0
776793,8751,,E Millbrook Rd at Tall Pines Ct,,35.851742,-78.625234,,,0,,America/New_York,,,0
776794,8752,,E Millbrook Rd at Sweetbriar St,,35.85177,-78.62968,,,0,,America/New_York,,,0
776795,8753,,E Millbrook Rd at Knollwood Dr,,35.85221,-78.63349,,,0,,America/New_York,,,0
776796,8754,,E Millbrook Rd at Farley Dr,,35.8541,-78.63616,,,0,,America/New_York,,,0
776797,8755,,E Millbrook Rd at Burnlee Pl,,35.85591,-78.64011,,,0,,America/New_York,,,0
776799,8759,,W Millbrook Rd at North Hills Dr,,35.85662,-78.65594,,,0,,America/New_York,,,0
776800,8760,,W Millbrook Rd at Oldetowne Rd,,35.85761,-78.66575,,,0,,America/New_York,,,0
776801,8761,,Millbrook Rd at Paces Forest Ct (WB),,35.857492,-78.668709,,,0,,America/New_York,,,0
776802,8762,,Millbrook Rd at Lead Mine Rd (WB),,35.85661,-78.670884,,,0,,America/New_York,,,0
776803,8763,,Old Wake Forest Rd at Ruritania St,,35.86995,-78.5834,,,0,,America/New_York,,,0
776806,8777,,W Millbrook Rd at Dixon Dr,,35.856391,-78.650048,,,0,,America/New_York,,,0
776807,8778,,Six Forks Rd at Office Center Dr (IB),,35.8952769897349,-78.6496554232788,,,0,,America/New_York,,,0
776808,8783,,Six Forks Rd at Woods Ream Dr,Just North of the junction of Six Forks Rd with Woods Ream Dr.,35.868204422388,-78.6386498162974,,,0,,America/New_York,,,0
776809,8784,,Six Forks Rd at West Brook Dr,,35.87149,-78.64139,,,0,,America/New_York,,,0
776810,8785,,Six Forks Rd at Sandy Forks Rd,,35.861702,-78.63793,,,0,,America/New_York,,,0
776811,8786,,Six Forks Rd at Lynn Rd (NB),,35.864488,-78.637356,,,0,,America/New_York,,,0
776813,8788,,Six Forks Rd at Wind Chime Ct,,35.87413,-78.64377,,,0,,America/New_York,,,0
776814,8789,,Six Forks Rd at Newton Rd,,35.878725,-78.64561,,,0,,America/New_York,,,0
776815,8790,,Six Forks Rd at Crown Oaks Ct,,35.8848,-78.64638,,,0,,America/New_York,,,0
776816,8791,,Six Forks Rd at Farrington Dr,,35.88726,-78.64681,,,0,,America/New_York,,,0
776817,8792,,Six Forks Rd at Featherstone Dr,,35.89182,-78.6483,,,0,,America/New_York,,,0
776818,8793,,Six Forks Rd at Office Center Dr (OB),,35.89454,-78.64913,,,0,,America/New_York,,,0
776819,8797,,Six Forks Rd at Monument Ln,,35.89276,-78.64882,,,0,,America/New_York,,,0
776820,8798,,Six Forks Rd at Renwick Ct,,35.88883,-78.64759,,,0,,America/New_York,,,0
776822,8800,,Six Forks Rd at Horizon Dr,,35.88524,-78.64674,,,0,,America/New_York,,,0
776823,8801,,Six Forks Rd at Sawmill Rd,,35.88372,-78.64645,,,0,,America/New_York,,,0
776824,8807,,Six Forks Rd at West Brook Dr,,35.87173,-78.64202,,,0,,America/New_York,,,0
776825,8808,,Six Forks Rd at Woods Ream Dr,,35.86756,-78.63854,,,0,,America/New_York,,,0
776826,8809,,Six Forks Rd at Northclift Dr,,35.86186,-78.63804,,,0,,America/New_York,,,0
776828,8817,,Blount St at Bledsoe Ave,,35.768467,-78.637177,,,0,,America/New_York,,,0
776830,8819,,Blount St at Bragg St,,35.765881,-78.637288,,,0,,America/New_York,,,0
776831,8820,,Blount St at City Farm Rd,,35.760527,-78.637618,,,0,,America/New_York,,,0
776832,8821,,City Farm Rd at Wilmington St,,35.759103,-78.639376,,,0,,America/New_York,,,0
776833,8822,,Wilmington St Center,,35.762023,-78.639697,,,0,,America/New_York,,,0
776834,8823,,Keeter Ctr at Branch St,,35.763591,-78.639974,,,0,,America/New_York,,,0
776836,8825,,McCauley St at McLendon St,,35.76524,-78.641169,,,0,,America/New_York,,,0
776840,8829,,Fayetteville St at Prospect St,,35.762969,-78.643977,,,0,,America/New_York,,,0
776841,8830,,Maywood Ave at Summit Ave,,35.760877,-78.645116,,,0,,America/New_York,,,0
776842,8831,,Maywood Ave at S Saunders St,,35.760858,-78.649439,,,0,,America/New_York,,,0
776843,8832,,Maywood Ave at Summit Ave,,35.760867,-78.65154,,,0,,America/New_York,,,0
776844,8833,,Maywood Ave at Moring St,,35.760885,-78.653221,,,0,,America/New_York,,,0
776845,8834,,Maywood Ave at Lake Wheeler Rd,,35.761571558726,-78.659554834459,,,0,,America/New_York,,,0
776846,8835,,Lake Wheeler Rd at Goode St,,35.762884,-78.658098,,,0,,America/New_York,,,0
776847,8836,,Lake Wheeler Rd at Daladams St,,35.764561,-78.655556,,,0,,America/New_York,,,0
776848,8837,,Lake Wheeler Rd at Fuller St,,35.766905,-78.652106,,,0,,America/New_York,,,0
776849,8838,,Blount St at Hoke St,,35.763564,-78.637143,,,0,,America/New_York,,,0
776850,8839,,Maywood Ave at Green St,,35.760895,-78.648068,,,0,,America/New_York,,,0
776852,8841,,Six Forks Rd at Forum Dr,,35.89832,-78.65068,,,0,,America/New_York,,,0
776853,8842,,Strickland Rd at Six Forks Rd,,35.90068,-78.65127,,,0,,America/New_York,,,0
776854,8843,,Six Forks Rd at Forum Dr,,35.8975,-78.65058,,,0,,America/New_York,,,0
776855,8844,,Oberlin Rd at Smallwood Dr,,35.791615,-78.662724,,,0,,America/New_York,,,0
776856,8845,,Oberlin Rd at Mayview Rd,,35.796843,-78.660249,,,0,,America/New_York,,,0
776857,8846,,Oberlin Rd at Annapolis Dr,,35.800213,-78.659919,,,0,,America/New_York,,,0
776858,8847,,Oberlin Rd at Craig St,,35.802593,-78.658249,,,0,,America/New_York,,,0
776859,8848,,Oberlin Rd at Fairview Rd,,35.808551,-78.655276,,,0,,America/New_York,,,0
776860,8849,,Oberlin Rd at Fairview Rd,,35.810038,-78.655796,,,0,,America/New_York,,,0
776861,8850,,Oberlin Rd at Greenway Ave,,35.811381,-78.656682,,,0,,America/New_York,,,0
776862,8851,,Oberlin Rd at Cartier Dr,,35.81439,-78.658985,,,0,,America/New_York,,,0
776863,8853,,Six Forks Rd at Chesterbrook Ct,,35.87397,-78.64407,,,0,,America/New_York,,,0
776865,8855,,Six Forks Rd at Newton Rd,,35.87874,-78.64595,,,0,,America/New_York,,,0
776866,8856,,Oberlin Rd at Chester Rd,,35.801764,-78.658968,,,0,,America/New_York,,,0
776867,8857,,Oberlin Rd at Mayview Rd,,35.797591,-78.660194,,,0,,America/New_York,,,0
776868,8858,,Oberlin Rd at Van Dyke Ave,,35.795806,-78.660923,,,0,,America/New_York,,,0
776869,8859,,Oberlin Rd at Bedford Ave,,35.793967,-78.662117,,,0,,America/New_York,,,0
776870,8860,,Oberlin Rd at Everett Ave,,35.792128,-78.662846,,,0,,America/New_York,,,0
776871,8861,,Cameron St at Daniels St (EB),,35.79084,-78.661573,,,0,,America/New_York,,,0
776872,8862,,Cameron St at Woodburn Rd (EB),,35.7909159530719,-78.6586941225109,,,0,,America/New_York,,,0
776874,8864,,S State St at Bragg St,,35.764358,-78.624681,,,0,,America/New_York,,,0
776876,8866,,S State St at Peterson St,,35.761393,-78.624526,,,0,,America/New_York,,,0
776877,8867,,Peterson St at Carnage Dr,,35.760456,-78.628396,,,0,,America/New_York,,,0
776880,8870,,Garner Rd at Peterson St (Greenway),,35.758996,-78.631426,,,0,,America/New_York,,,0
776881,8871,,Six Forks Rd at Lynn Rd (SB),,35.864552,-78.637596,,,0,,America/New_York,,,0
776887,8877,,Hadley Dr at Gilliam Ln,,35.750659,-78.620523,,,0,,America/New_York,,,0
776888,8878,,S State St at Bunche Dr,,35.753024,-78.621344,,,0,,America/New_York,,,0
776889,8879,,S State St at Peterson St,,35.7611261460882,-78.6243542361937,,,0,,America/New_York,,,0
776891,8881,,S State St at Bragg St,,35.765269,-78.624592,,,0,,America/New_York,,,0
776892,8882,,S State St at Martin Luther King Jr Blvd,,35.768261,-78.624615,,,0,,America/New_York,,,0
776893,8883,,S State St at Tipton St,,35.769973,-78.624537,,,0,,America/New_York,,,0
776894,8885,,Lenoir St at Freeman St,,35.772623,-78.62477,,,0,,America/New_York,,,0
776896,8887,,Lenoir St at Haywood St,,35.772731,-78.628386,,,0,,America/New_York,,,0
776898,8889,,E Lenoir St at S Blount St,Located just West of intersection of E Lenoir St with S Blount St.,35.7728988005771,-78.6370802239599,,,0,,America/New_York,,,0
776903,8903,,Wake Tech Community College,,35.649833643639,-78.706756215334,,,0,,America/New_York,,,0
776904,8904,,Arco Corporate Dr at Brier Creek Pkwy,,35.9109573124089,-78.7823365445208,,,0,,America/New_York,,,0
776905,8907,,E Bragg St at S Person St,,35.765902532575,-78.635393877251,,,0,,America/New_York,,,0
776907,8909,,Blount St at GoRaleigh Station,,35.777681122301,-78.636708148768,,,0,,America/New_York,,,0
776908,8910,,Sunnybrook Rd at Holston Ln,,35.78466,-78.58406,,,0,,America/New_York,,,0
776909,8911,,Rock Quarry Rd at Cross Link Rd,,35.755060756371,-78.612531140073,,,0,,America/New_York,,,0
776911,8914,,St Marys St at Anderson Dr,,35.8140832864,-78.651016281727,,,0,,America/New_York,,,0
776913,8916,,St Mary's St at White Oak Rd,,35.82211,-78.6506,,,0,,America/New_York,,,0
776914,8917,,Lassiter Mill Rd at Marlowe Rd,,35.8287799381732,-78.6484892060545,,,0,,America/New_York,,,0
776915,8918,,Lassiter Mill Rd at Ramblewood Dr,,35.8336155815626,-78.646533033917,,,0,,America/New_York,,,0
776917,8920,,Six Forks Rd at Lassiter Mill Rd,,35.83987,-78.64255,,,0,,America/New_York,,,0
776918,8921,,Lassiter Mill Rd at Currituck Dr,,35.83594,-78.6463,,,0,,America/New_York,,,0
776919,8922,,Lassiter Mill Rd at Ramblewood Dr,,35.83373,-78.6467,,,0,,America/New_York,,,0
776920,8923,,St Marys St at Glenwood Ave (SB),,35.813408885556,-78.651179766733,,,0,,America/New_York,,,0
776921,8924,,St Mary's St at Wake Dr,,35.8122,-78.65136,,,0,,America/New_York,,,0
776922,8925,,Martin Luther King Jr Blvd at S State St (WB),,35.7678991478851,-78.6249350061735,,,0,,America/New_York,,,0
776923,8926,,Martin Luther King Jr Blvd at Haywood St,,35.767995,-78.627289,,,0,,America/New_York,,,0
776924,8927,,Martin Luther King Jr Blvd at S East St,,35.769031,-78.633215,,,0,,America/New_York,,,0
776925,8928,,Calvary Dr at Capital Crossing,,35.845056,-78.582872,,,0,,America/New_York,,,0
776927,8930,,Green Rd at Waterbury Rd,,35.84418,-78.58801,,,0,,America/New_York,,,0
776929,8932,,Six Forks Rd at Barrett Dr,,35.828037,-78.634349,,,0,,America/New_York,,,0
776930,8933,,S State St at Darby St,,35.75732,-78.623531,,,0,,America/New_York,,,0
776931,8934,,Edwards Mill Rd at Parklake Ave (NB),,35.8366302160113,-78.6885510449808,,,0,,America/New_York,,,0
776932,8935,,Edwards Mill Rd at Arckelton Dr,,35.838451,-78.686335,,,0,,America/New_York,,,0
776933,8936,,Edwards Mill Rd at Crabtree Valley Ave,,35.838174,-78.682395,,,0,,America/New_York,,,0
776934,8937,,Edwards Mill Rd at Sunrise Senior Center,,35.839172,-78.685392,,,0,,America/New_York,,,0
776935,8938,,Edwards Mill Rd at Parklake Ave (SB),Located East of the intersection of Edwards Mill Road with Parklake Avenue.,35.8365560714678,-78.6889145094126,,,0,,America/New_York,,,0
776937,8940,,Wake Forest Rd at Six Forks (SB),,35.821287,-78.623441,,,0,,America/New_York,,,0
776938,8941,,Six Forks Rd at Computer Dr,,35.831649,-78.636194,,,0,,America/New_York,,,0
776939,9015,,Six Forks Rd at Mourning Dove Rd,,35.88159,-78.64604,,,0,,America/New_York,,,0
776940,9017,,Belmont Dr at Glenbrook Dr,,35.7662,-78.60368,,,0,,America/New_York,,,0
776948,9046,,Atlantic Ave at Dixie Forest Rd,,35.86286,-78.59878,,,0,,America/New_York,,,0
776949,9047,,Spring Forest Rd at Dixie Forest Rd (WB),,35.862751077304,-78.60208003534,,,0,,America/New_York,,,0
776950,9048,,Spring Forest Rd at Quail Ridge Rd (WB),,35.864282782725,-78.603949087365,,,0,,America/New_York,,,0
776951,9049,,Spring Forest Rd at Exchange Park (WB),,35.866498,-78.60781,,,0,,America/New_York,,,0
776952,9050,,Volant Dr at Hemphill Dr,,35.8659898911391,-78.6134482542468,,,0,,America/New_York,,,0
776953,9051,,Avent Ferry Rd at Crab Orchard Dr,,35.766955,-78.70165,,,0,,America/New_York,,,0
776954,9052,,Athens Dr at Avent Ferry Rd - Athen,,35.769004,-78.709249,,,0,,America/New_York,,,0
776955,9053,,Athens Dr at Smithdale Dr,,35.771853,-78.714202,,,0,,America/New_York,,,0
776956,9054,,Athens Dr at Bouree Ct,,35.776621,-78.719609,,,0,,America/New_York,,,0
776957,9055,,Jones Franklin Rd at Barringer Dr (North),,35.778304408295,-78.7216604809856,,,0,,America/New_York,,,0
776958,9056,,Jones Franklin Rd at Barringer Dr (South),,35.7751704430282,-78.7221575914364,,,0,,America/New_York,,,0
776959,9057,,Fort Sumter Rd at Jones Franklin Rd,,35.772972,-78.723336,,,0,,America/New_York,,,0
776960,9058,,Dana Dr at Fort Sumter Rd,,35.773989441705,-78.7273225707645,,,0,,America/New_York,,,0
776961,9059,,Dana Dr at Brook Hill Apts (across),,35.7722030682021,-78.7281427241491,,,0,,America/New_York,,,0
776962,9060,,Buck Jones Rd at Bashford Rd,,35.776548,-78.732375,,,0,,America/New_York,,,0
776963,9061,,Buck Jones Rd at Portree Pl,,35.779731,-78.729789,,,0,,America/New_York,,,0
776964,9062,,Buck Jones Rd at Fieldspring Ln,,35.783427,-78.723776,,,0,,America/New_York,,,0
776965,9063,,Jones Franklin Rd at Buck Jones Rd,,35.784154,-78.721795,,,0,,America/New_York,,,0
776966,9064,,Western Blvd at Carolina Ave,,35.78636,-78.71653,,,0,,America/New_York,,,0
776967,9065,,Western Blvd at Heather Dr,,35.786404,-78.713748,,,0,,America/New_York,,,0
776968,9066,,Western Blvd at Deboy St,,35.785869,-78.706524,,,0,,America/New_York,,,0
776969,9067,,Western Blvd at Schaub Dr,,35.784918,-78.703665,,,0,,America/New_York,,,0
776970,9068,,Schaub Dr at Sandlin Pl,,35.782844,-78.704069,,,0,,America/New_York,,,0
776971,9069,,Schaub Dr at Teakwood Pl,,35.781725,-78.705584,,,0,,America/New_York,,,0
776972,9070,,Schaub Dr at Deboy St,,35.782151,-78.706196,,,0,,America/New_York,,,0
776973,9071,,Deboy St at Driftwood Dr,,35.78172,-78.70806,,,0,,America/New_York,,,0
776974,9072,,Deboy St at Huntingdon Dr,,35.77863,-78.70861,,,0,,America/New_York,,,0
776975,9073,,Kaplan Dr at Pineview Dr,,35.775089,-78.710624,,,0,,America/New_York,,,0
776976,9074,,Kaplan Dr at Swallow Dr,,35.773131,-78.713834,,,0,,America/New_York,,,0
776977,9079,,Western Blvd at Nazareth St,,35.780017,-78.673421,,,0,,America/New_York,,,0
776978,9089,,Athens Dr at Jones Franklin Rd,,35.779033,-78.720959,,,0,,America/New_York,,,0
776979,9090,,Athens Dr at Smithdale Dr,,35.777381,-78.709965,,,0,,America/New_York,,,0
776980,9091,,Athens Dr at Pauls Rd (Lake Johnson),,35.770281,-78.711559,,,0,,America/New_York,,,0
776981,9092,,Avent Ferry Rd at Lake Dam Rd,,35.766818,-78.705514,,,0,,America/New_York,,,0
776982,9093,,Avent Ferry Rd at Crab Orchard Dr,,35.766744,-78.701034,,,0,,America/New_York,,,0
776983,9098,,New Hope Church Rd at Wake Forest Rd (EB),,35.83568,-78.61041,,,0,,America/New_York,,,0
776984,9099,,New Hope Church Rd at Atlantic Ave (EB),,35.83441,-78.60409,,,0,,America/New_York,,,0
776985,9100,,New Hope Church Rd at Brentwood Rd (EB),,35.83528,-78.59712,,,0,,America/New_York,,,0
776986,9101,,New Hope Church Rd at Huntleigh Dr,,35.83566,-78.59469,,,0,,America/New_York,,,0
776987,9102,,Green Rd at New Hope Church Rd,,35.83578,-78.5929,,,0,,America/New_York,,,0
776989,9104,,Green Rd at Greenock Dr (NB),,35.838877,-78.591349,,,0,,America/New_York,,,0
776990,9105,,Green Rd at Kilcullen Dr,,35.84245,-78.58953,,,0,,America/New_York,,,0
776991,9106,,Green Rd at Hallmark Pl (NB),,35.847769,-78.586516,,,0,,America/New_York,,,0
776992,9107,,New Hope Rd at Capital Blvd,,35.84987,-78.57913,,,0,,America/New_York,,,0
776993,9111,,Spring Forest Rd at Casa Del Ray Dr,,35.85534,-78.57677,,,0,,America/New_York,,,0
776994,9112,,Hollenden Dr at Hylton Dr,,35.85283,-78.57539,,,0,,America/New_York,,,0
776995,9113,,Hollenden Dr at Pebble Beach Dr,,35.85112,-78.575874,,,0,,America/New_York,,,0
776996,9114,,New Hope Rd at Green Acres Rd,,35.85011,-78.57874,,,0,,America/New_York,,,0
776997,9115,,E Millbrook Rd at Signett Dr,,35.84979,-78.58316,,,0,,America/New_York,,,0
776998,9116,,Green Rd at Hallmark Pl (SB),,35.847648,-78.586833,,,0,,America/New_York,,,0
776999,9117,,Green Rd at Kilcullen Dr,,35.84304,-78.58958,,,0,,America/New_York,,,0
777000,9118,,Green Rd at Brockton Dr,,35.83966,-78.59116,,,0,,America/New_York,,,0
777001,9119,,Green Rd at New Hope Church Rd,,35.83724,-78.59238,,,0,,America/New_York,,,0
777003,9121,,New Hope Church Rd at Brentwood Rd (WB),,35.835102,-78.599465,,,0,,America/New_York,,,0
777004,9122,,New Hope Church Rd at Atlantic Ave (WB),,35.83465,-78.60274,,,0,,America/New_York,,,0
777005,9123,,New Hope Church Rd at Wake Forest Rd (Walmart),,35.83584,-78.61038,,,0,,America/New_York,,,0
777006,9124,,E Martin St at Chavis Way,,35.77658,-78.63118,,,0,,America/New_York,,,0
777007,9128,,Six Forks Rd at Selby Dr,,35.8213841884499,-78.6285012185192,,,0,,America/New_York,,,0
777010,9131,,Six Forks Rd at Millbrook Rd (OB),,35.855519002986,-78.641512134747,,,0,,America/New_York,,,0
777018,9145,,New Bern Ave at Trawick Rd (WB),,35.798266,-78.575603,,,0,,America/New_York,,,0
777020,9147,,E Lane St at Linden Ave,,35.783609,-78.629017,,,0,,America/New_York,,,0
777021,9149,,N East St at E Lane St,,35.783519,-78.632015,,,0,,America/New_York,,,0
777022,9151,,E Lane St at N East St,,35.783717,-78.631716,,,0,,America/New_York,,,0
777023,9152,,Timber Dr at Dennis Ave,,35.799021,-78.613586,,,0,,America/New_York,,,0
777024,9159,,Martin Luther King Jr Blvd at Gregg St,,35.767846,-78.626572,,,0,,America/New_York,,,0
777025,9160,,Garner Rd at Bailey Dr (SB),,35.754707,-78.631352,,,0,,America/New_York,,,0
777026,9161,,Garner Rd at Warehouse Dr (SB),,35.752092,-78.631248,,,0,,America/New_York,,,0
777027,9162,,Newcombe Rd at Biltmore Ct,,35.751191,-78.629048,,,0,,America/New_York,,,0
777028,9163,,Newcombe Rd at Fitzgerald Dr,,35.7500766218052,-78.6270203414551,,,0,,America/New_York,,,0
777029,9164,,Raleigh Blvd at MLK Jr Blvd,,35.768220689442,-78.614295959801,,,0,,America/New_York,,,0
777030,9165,,McDowell St at Davie St,,35.774974,-78.641868,,,0,,America/New_York,,,0
777031,9168,,Sunnybrook Rd at Poole Rd (SB),,35.772207,-78.583217,,,0,,America/New_York,,,0
777033,9170,,Oberlin Rd at Clark Ave,,35.7897065140194,-78.6631157868314,,,0,,America/New_York,,,0
777035,9174,,Peace St at Vaughn Ct (R20),,35.788039,-78.639798,,,0,,America/New_York,,,0
777037,9177,,Old Wake Forest Rd at Sumner Blvd,,35.8674,-78.58849,,,0,,America/New_York,,,0
777038,9178,,Old Wake Forest Rd at Shadowland Crossing,,35.86562,-78.59218,,,0,,America/New_York,,,0
777040,9181,,Oberlin Rd at Colonial Rd,,35.805496,-78.65648,,,0,,America/New_York,,,0
777041,9182,,Little John Rd at St George Rd,,35.763543,-78.58904,,,0,,America/New_York,,,0
777042,9183,,Bell Dr at Friar Tuck Rd,,35.766777,-78.585135,,,0,,America/New_York,,,0
777043,9184,,Bell Dr at Edison Rd,,35.765659,-78.583908,,,0,,America/New_York,,,0
777045,9186,,Poole Rd at Peyton St,,35.774767,-78.606068,,,0,,America/New_York,,,0
777046,9187,,E Martin at S East St,,35.776642,-78.632766,,,0,,America/New_York,,,0
777047,9188,,Chavis Way at E Lenior St,Located just South of junction of Lenoir St with Chavis Way; just inside John Chavis Memorial Park.,35.7724963637008,-78.6315515392658,,,0,,America/New_York,,,0
777049,9190,,Chavis Way at Franklin Ter,,35.770135,-78.628275,,,0,,America/New_York,,,0
777051,9192,,Chavis Way at MLK Jr Blvd,,35.768324,-78.628375,,,0,,America/New_York,,,0
777052,9193,,Holmes St at E Bragg St,,35.76573268057,-78.628371130059,,,0,,America/New_York,,,0
777053,9194,,E Bragg St at Angelus Dr,,35.765758663985,-78.630235593141,,,0,,America/New_York,,,0
777054,9196,,E Bragg St at S Bloodworth St,,35.765827531028,-78.633925345334,,,0,,America/New_York,,,0
777056,9198,,S Person St at Bledsoe Ave,Located just South of junction of Bledsoe Ave with Person St.,35.768219,-78.635393,,,0,,America/New_York,,,2
777058,9200,,S Person St at Worth St,,35.770473460232,-78.635317317578,,,0,,America/New_York,,,0
777059,9201,,S Person St at Lenoir St,,35.772678071206,-78.635177814205,,,0,,America/New_York,,,0
777060,9203,,E Hargett St at Fayetteville St,,35.778323,-78.638953,,,0,,America/New_York,,,0
777061,9204,,E Martin St at S State St,,35.776357,-78.624072,,,0,,America/New_York,,,0
777062,9205,,S Tarboro Rd at E Hargett St (NB),,35.777544,-78.622314,,,0,,America/New_York,,,0
777063,9206,,S Tarboro Rd at New Bern Ave,,35.779437,-78.622237,,,0,,America/New_York,,,0
777064,9207,,Bus Way at Poole Rd,,35.767493,-78.563734,,,0,,America/New_York,,,0
777065,9208,,Poole Rd at Bus Way,,35.768246,-78.565123,,,0,,America/New_York,,,0
777066,9209,,Poole Rd at Carya Dr (EB),,35.767934,-78.568893,,,0,,America/New_York,,,0
777070,9213,,Lunar Dr at Grantland Dr (north),,35.767566,-78.609663,,,0,,America/New_York,,,0
777072,9215,,Lunar Dr at Grantland Dr (south),,35.765241,-78.607485,,,0,,America/New_York,,,0
777074,9218,,Glenbrook Dr at Dacian Rd (NB),,35.768201,-78.602997,,,0,,America/New_York,,,0
777075,9219,,Glenbrook Dr at Fernbrook Rd (EB),,35.769586,-78.601627,,,0,,America/New_York,,,0
777076,9220,,Glenbrook Dr at Martin Luther King Jr Blvd (NB),,35.7716049296288,-78.6003495472782,,,0,,America/New_York,,,0
777077,9221,,Poole Rd at Carya Dr (WB),,35.768113,-78.568976,,,0,,America/New_York,,,0
777078,9222,,Poole Rd at Shellum St,,35.775263,-78.607185,,,0,,America/New_York,,,0
777079,9223,,Poole Rd at Kennedy St,,35.776029,-78.609352,,,0,,America/New_York,,,0
777080,9225,,Poole Rd at Lightner Ln,,35.777544,-78.613389,,,0,,America/New_York,,,0
777081,9226,,Poole Rd at Fisher St,,35.778337,-78.615557,,,0,,America/New_York,,,0
777082,9227,,Poole Rd at Sunbury St,,35.779238,-78.617946,,,0,,America/New_York,,,0
777083,9229,,S Tarboro Rd at E Hargett St (SB),,35.7785873547628,-78.6224233232049,,,0,,America/New_York,,,0
777084,9230,,E Hargett St at Camden St,,35.777886,-78.626252,,,0,,America/New_York,,,0
777085,9231,,E Hargett St at S Swain St,,35.778012,-78.629459,,,0,,America/New_York,,,0
777086,9232,,Beverly Dr at Carlisle St,,35.7676,-78.595209,,,0,,America/New_York,,,0
777088,9234,,E Martin St at S Swain St,,35.776516,-78.629039,,,0,,America/New_York,,,0
777089,9235,,S Tarboro Rd at E Martin St,,35.776079,-78.622524,,,0,,America/New_York,,,0
777090,9237,,E Hargett St at S East St,,35.778091,-78.631763,,,0,,America/New_York,,,0
777091,9238,,Poole Rd at Angier Ave,,35.776584,-78.611163,,,0,,America/New_York,,,0
777092,9239,,Lake Wheeler Rd at Grissom St,,35.765923,-78.653533,,,0,,America/New_York,,,0
777094,9244,,Poole Rd at Heath St,,35.778932,-78.617448,,,0,,America/New_York,,,0
777095,9246,,Poole Rd at Raleigh Blvd (EB),,35.77776,-78.614307,,,0,,America/New_York,,,0
777096,9248,,Poole Rd at Lumpkin Rd,,35.7773,-78.613024,,,0,,America/New_York,,,0
777097,9250,,Poole Rd at Parnell Dr,,35.77575,-78.608832,,,0,,America/New_York,,,0
777098,9252,,Poole Rd at S King Charles Rd,,35.773784,-78.603082,,,0,,America/New_York,,,0
777100,9256,,Poole Rd at Rose Ln (EB),,35.772155,-78.597685,,,0,,America/New_York,,,0
777101,9258,,Poole Rd at Beverly Dr (EB),,35.771439,-78.594655,,,0,,America/New_York,,,0
777102,9260,,Beverly Dr at Friar Tuck Rd (north),,35.769375,-78.594556,,,0,,America/New_York,,,0
777103,9262,,Beverly Dr at Bromley St (SB),,35.766005,-78.595188,,,0,,America/New_York,,,0
777104,9264,,Beverly Dr at Friar Tuck Rd (south),,35.763941,-78.596339,,,0,,America/New_York,,,0
777105,9266,,Beverly Dr at Little John Rd,,35.762932,-78.596361,,,0,,America/New_York,,,0
777106,9268,,Little John Rd at Weston St,,35.763084,-78.593685,,,0,,America/New_York,,,0
777107,9270,,Little John Rd at Carlisle St,,35.763345,-78.591219,,,0,,America/New_York,,,0
777108,9274,,Cooper Rd at Bell Dr,,35.766643,-78.586418,,,0,,America/New_York,,,0
777109,9276,,Edison Rd at Sunnybrook Rd,,35.766029,-78.582813,,,0,,America/New_York,,,0
777110,9278,,Middle Branch Rd at Sunnybrook Rd (EB),,35.765172,-78.580945,,,0,,America/New_York,,,0
777111,9280,,Birch Ridge Dr at Middle Branch Rd,,35.765567,-78.577118,,,0,,America/New_York,,,0
777112,9282,,Birch Ridge Dr at Rock Bridge Rd,,35.766666,-78.576963,,,0,,America/New_York,,,0
777113,9284,,Poole Rd at Samuel Rd,,35.769029,-78.580655,,,0,,America/New_York,,,0
777114,9286,,Poole Rd at Sunnybrook Rd,,35.771544,-78.583563,,,0,,America/New_York,,,0
777116,9290,,Poole Rd at Rawls Dr (WB),,35.772465,-78.5874,,,0,,America/New_York,,,0
777117,9292,,Poole Rd at Ralph Dr,,35.77261,-78.590618,,,0,,America/New_York,,,0
777118,9294,,Poole Rd at Donald Ross Dr,,35.772092,-78.592583,,,0,,America/New_York,,,0
777119,9296,,Poole Rd at Beverly Dr (WB),,35.77162,-78.595173,,,0,,America/New_York,,,0
777120,9298,,Poole Rd at Rose Ln (WB),,35.772332,-78.597815,,,0,,America/New_York,,,0
777121,9300,,Poole Rd at Martin Luther King Jr Blvd (WB),,35.773423,-78.601578,,,0,,America/New_York,,,0
777122,9301,,E Millbrook Rd at Falls of Neuse Rd (WB),,35.850761,-78.616307,,,0,,America/New_York,,,0
777123,9302,,Bellwood Ave at Clark Ave,,35.78958,-78.656418,,,0,,America/New_York,,,0
777124,9303,,Peace St at St Marys St (EB),,35.7886,-78.65131,,,0,,America/New_York,,,0
777126,9305,,1281 Cross Link Rd,,35.749512,-78.618412,,,0,,America/New_York,,,0
777127,9306,,Poole Rd at Coke St,,35.776891,-78.611601,,,0,,America/New_York,,,0
777128,9308,,Norman Pl at Buck Jones Rd,,35.775061,-78.732687,,,0,,America/New_York,,,0
777129,9310,,Edwards Mill Rd at Glen Eden Dr (NB),,35.833939,-78.697256,,,0,,America/New_York,,,0
777130,9311,,Calvary Dr at Louisburg Rd,,35.8431,-78.57662,,,0,,America/New_York,,,0
777132,9315,,E Lenoir St at Chavis Way,,35.772704,-78.631361,,,0,,America/New_York,,,0
777133,9316,,E Lenoir St at S Haywood St,,35.7726367404628,-78.6282501372261,,,0,,America/New_York,,,0
777134,9317,,E Lenoir St at S State St,,35.772533,-78.624559,,,0,,America/New_York,,,0
777136,9319,,S State St at MLK Jr Blvd,,35.768117,-78.624747,,,0,,America/New_York,,,0
777137,9320,,Creedmoor Rd at Sherborne Pl (Magnolia Glen),,35.85395,-78.680706,,,0,,America/New_York,,,0
777138,9321,,Fort Sumter Rd at Dana Dr,,35.7742,-78.726319,,,0,,America/New_York,,,0
777139,9322,,Western Blvd at Hunt Club Ln,,35.785446037698,-78.719560298073,,,0,,America/New_York,,,0
777140,9323,,Western Blvd at Pineland Cir,,35.7864380309916,-78.7089432915025,,,0,,America/New_York,,,0
777141,9324,,Melbourne Rd at Aukland Dr,,35.777587,-78.709441,,,0,,America/New_York,,,0
777142,9325,,Buck Jones Rd at Wilmot Dr,,35.781662,-78.726661,,,0,,America/New_York,,,0
777143,9326,,Dana Dr At Jefferies Rd,,35.769759,-78.729588,,,0,,America/New_York,,,0
777144,9328,,Wake Forest Rd at Poplar St,,35.793982,-78.631695,,,0,,America/New_York,,,0
777145,9329,,Capital Blvd at Spring Forest Rd (north side),,35.855600173172,-78.58092612317,,,0,,America/New_York,,,0
777146,9330,,Rock Quarry Rd at Martin Luther King Jr Blvd,,35.7692670052248,-78.6181936406251,,,0,,America/New_York,,,0
777148,9332,,1518 Cross Link Rd,,35.752927,-78.615971,,,0,,America/New_York,,,0
777149,9333,,Lake Wheeler at Tryon,,35.7439503243952,-78.6793821200712,,,0,,America/New_York,,,0
777150,9337,,Carolina Pines Ave at Quaker Landing,,35.752214,-78.666825,,,0,,America/New_York,,,0
777151,9338,,Carolina Pines Ave at Batts St,,35.7518,-78.66381,,,0,,America/New_York,,,0
777152,9339,,Carolina Pines Ave at Henslowe Dr,,35.75124,-78.66022,,,0,,America/New_York,,,0
777153,9340,,Club Plaza at Oak Rd,,35.74734,-78.65915,,,0,,America/New_York,,,0
777154,9341,,Suffolk Blvd at Fairway Dr,,35.74523,-78.6593,,,0,,America/New_York,,,0
777155,9342,,Suffolk Blvd at Carolina Pines Ave,,35.74548,-78.65694,,,0,,America/New_York,,,0
777156,9343,,Carolina Pines Ave at S Saunders St,,35.74865,-78.64963,,,0,,America/New_York,,,0
777157,9344,,Pecan Rd at S Saunders St,,35.74857,-78.64794,,,0,,America/New_York,,,0
777158,9345,,Rush St at Hammond Rd,,35.74284,-78.64279,,,0,,America/New_York,,,0
777159,9346,,Falls of Neuse Rd at Manassas Ct (SB),,35.858875,-78.617293,,,0,,America/New_York,,,0
777160,9347,,Rush St at Boone Tr,,35.741159,-78.6338,,,0,,America/New_York,,,0
777161,9348,,Rush St at Marion Dr,,35.74079,-78.63218,,,0,,America/New_York,,,0
777162,9349,,Rush St at Garner Rd,,35.7402631126635,-78.6297135010672,,,0,,America/New_York,,,0
777163,9351,,Cross Link Rd at Seabrook Rd,,35.742233,-78.623873,,,0,,America/New_York,,,0
777164,9352,,Cross Link Rd at Crown Crossing Ln,,35.74464,-78.62372,,,0,,America/New_York,,,0
777165,9353,,Cross Link Rd at Dandridge Dr,,35.746701816909,-78.6222609447746,,,0,,America/New_York,,,0
777166,9354,,Cross Link Rd at Platinum Ave,,35.751263,-78.617103,,,0,,America/New_York,,,0
777167,9356,,Cross Link Rd at Rock Quarry Rd (Southgate Plaza),,35.7544889162027,-78.6135887134985,,,0,,America/New_York,,,0
777168,9357,,1515 Cross Link Rd (First Cosmopolitan Baptist Church),,35.752959,-78.616132,,,0,,America/New_York,,,0
777169,9358,,Cross Link Rd at Hadley Rd,,35.751601,-78.617045,,,0,,America/New_York,,,0
777170,9359,,Cross Link Rd at Dandridge Dr,,35.74674,-78.62254,,,0,,America/New_York,,,0
777171,9360,,Cross Link Rd at Seabrook Rd,,35.7421538665781,-78.6240738490391,,,0,,America/New_York,,,0
777172,9361,,Rush St at Disco Ln,,35.741358,-78.634486,,,0,,America/New_York,,,0
777173,9362,,Cross Link Rd at Garner Rd,,35.74049,-78.63009,,,0,,America/New_York,,,0
777174,9363,,Rush St at Marion Dr,,35.7408869341735,-78.6322884540367,,,0,,America/New_York,,,0
777175,9364,,Rush St at Sheldon Dr,,35.7417,-78.6361,,,0,,America/New_York,,,0
777176,9365,,Rush St at S Wilmington St,,35.7439239274108,-78.6462240937652,,,0,,America/New_York,,,0
777177,9366,,Pecan Rd at S Saunders St,,35.748764,-78.648396,,,0,,America/New_York,,,0
777178,9367,,Carolina Pine Ave at S Saunders St,,35.74894,-78.64988,,,0,,America/New_York,,,0
777179,9368,,Carolina Pines Ave at Marble St,,35.74766,-78.65221,,,0,,America/New_York,,,0
777180,9369,,Carolina Pines Ave at Springhill Ave,,35.74665,-78.65676,,,0,,America/New_York,,,0
777181,9370,,Carolina Pines Ave at Sardis Dr (NB),,35.7492543261018,-78.6584489627361,,,0,,America/New_York,,,0
777182,9376,,Lake Wheeler Rd at Henslowe Dr,,35.74918,-78.671813,,,0,,America/New_York,,,0
777183,9377,,Lake Wheeler Rd at Lineberry Dr,,35.747135,-78.675074,,,0,,America/New_York,,,0
777184,9379,,Whitaker Mill Rd at Sunset Dr (WB),,35.80488,-78.64361,,,0,,America/New_York,,,0
777185,9380,,Glenwood Ave at Fairview Rd,,35.802723,-78.645836,,,0,,America/New_York,,,0
777186,9381,,Glascock St at State St (EB),,35.792784,-78.620976,,,0,,America/New_York,,,0
777187,9384,,E Peace St at N Blount St,,35.7878008063039,-78.6362402498698,,,0,,America/New_York,,,0
777189,9388,,Edwards Mill Rd at Mill Village Rd,,35.83761,-78.69096,,,0,,America/New_York,,,0
777190,9389,,Edwards Mill Rd at Laurel Hills Rd (north),,35.834966,-78.695633,,,0,,America/New_York,,,0
777192,9391,,Lake Boone Tr at Nancy Ann Dr,,35.81549,-78.697637,,,0,,America/New_York,,,0
777193,9392,,Sanderford Rd at Fox Run,,35.748072,-78.613315,,,0,,America/New_York,,,0
777194,9393,,Poplar St at N Blount St,,35.7956740820914,-78.6352838614718,,,0,,America/New_York,,,0
777195,9394,,Peyton St at Belmont Dr (SB),,35.76473,-78.60437,,,0,,America/New_York,,,0
777196,9395,,Gorman St at Graduate Ln,,35.7733116112,-78.6917661319,,,0,,America/New_York,,,0
777198,9397,,S Saunders St at Maywood Ave,,35.76096,-78.64936,,,0,,America/New_York,,,0
777200,9400,,Six Forks Rd at Windel Dr,,35.85309,-78.642546,,,0,,America/New_York,,,0
777201,9401,,Method Rd at Western Blvd,,35.78431,-78.69387,,,0,,America/New_York,,,0
777202,9402,,Kaplan Dr at Kent Rd,,35.776762,-78.693556,,,0,,America/New_York,,,0
777203,9403,,Kaplan Dr at Hunters Club Dr,,35.775909,-78.692203,,,0,,America/New_York,,,0
777204,9404,,S Person St at Davie St,,35.774981,-78.635041,,,0,,America/New_York,,,0
777205,9405,,Sunnybrook Rd at Sungate Blvd,,35.776555,-78.583428,,,0,,America/New_York,,,0
777206,9406,,E Millbrook Rd at Walenda Dr,,35.847956,-78.594828,,,0,,America/New_York,,,0
777207,9407,,Method Rd at Woods Pl,,35.79164,-78.69377,,,0,,America/New_York,,,0
777209,9410,,St Marys St at Williamson Dr (SB),,35.798516602187,-78.65304534432,,,0,,America/New_York,,,0
777211,9412,,Green Rd at Calvary Dr,,35.84548,-78.58718,,,0,,America/New_York,,,0
777212,9413,,Lake Boone Tr at Myron Dr,,35.815817,-78.6932,,,0,,America/New_York,,,0
777213,9414,,Lake Boone Tr at Rexwood Dr,,35.815587,-78.70079,,,0,,America/New_York,,,0
777214,9415,,WakeMed Perimeter Rd at Swinburne St,,35.78295,-78.58671,,,0,,America/New_York,,,0
777215,9416,,Halifax St at E Peace St,,35.788322,-78.63852,,,0,,America/New_York,,,0
777216,9417,,Halifax St at Oak Chase Ln,,35.792414,-78.638222,,,0,,America/New_York,,,0
777217,9418,,Cedar St at Harp St,,35.79409,-78.636884,,,0,,America/New_York,,,0
777219,9420,,Poplar St at Mordecai St,,35.794667,-78.633145,,,0,,America/New_York,,,0
777220,9421,,Glascock St at Watauga St (EB),,35.79309,-78.629173,,,0,,America/New_York,,,0
777225,9426,,Gorman St at Sullivan Dr,,35.7887978288,-78.6862790618,,,0,,America/New_York,,,0
777227,9430,,Sanderford Rd at Seabrook Rd,,35.7422085346333,-78.6137056763806,,,0,,America/New_York,,,0
777228,9431,,S State St at Tipton St,,35.769883,-78.624648,,,0,,America/New_York,,,0
777229,9432,,Lake Boone Tr at Landmark Dr,,35.815562,-78.698002,,,0,,America/New_York,,,0
777230,9433,,Lake Boone Tr at Rexwood Dr,,35.815443,-78.701023,,,0,,America/New_York,,,0
777231,9437,,Morgan St at Boylan Ave,Located just West of intersection of W Morgan St with S Boylan Ave.,35.7798981244545,-78.6493074378333,,,0,,America/New_York,,,0
777234,9440,,Glascock St at Delany Dr,,35.792424,-78.616286,,,0,,America/New_York,,,0
777235,9442,,Wake Forest Rd at Mimosa St (Mordecai Historic Park),,35.792217,-78.632755,,,0,,America/New_York,,,0
777236,9443,,Capital Blvd at Capital Square Shopping Center,,35.822936,-78.588905,,,0,,America/New_York,,,0
777237,9444,,Capital Blvd at NC Library Association (SB),,35.805692,-78.617595,,,0,,America/New_York,,,0
777240,9448,,Barksdale Dr at Raleigh Blvd,,35.8024719935299,-78.6080517137927,,,0,,America/New_York,,,0
777241,9449,,Millbank St at Marlborough Rd,,35.79929,-78.605122,,,0,,America/New_York,,,0
777244,9452,,Rumson Rd at Marlborough Rd,,35.800299,-78.604204,,,0,,America/New_York,,,0
777245,9453,,E Lane St at N Wilmington St,,35.783906,-78.637722,,,0,,America/New_York,,,0
777246,9454,,E Lane St at N Blount St,,35.783843,-78.635875,,,0,,America/New_York,,,0
777247,9455,,N East St at E Edenton St,,35.7808732740853,-78.6321779095159,,,0,,America/New_York,,,0
777248,9456,,N East St at E Jones St,,35.782158,-78.63207,,,0,,America/New_York,,,0
777249,9457,,E Lane St at Seawell Ave,,35.783393,-78.627038,,,0,,America/New_York,,,0
777250,9458,,E Lane St at N State St,,35.783279560249,-78.6231425704308,,,0,,America/New_York,,,0
777252,9460,,E Lane St at Linden Ave,,35.783474,-78.629559,,,0,,America/New_York,,,0
777253,9461,,Hill St at Oakwood Ave,,35.78452,-78.617337,,,0,,America/New_York,,,0
777254,9462,,N King Charles Rd at Brighton Rd,,35.789548,-78.609394,,,0,,America/New_York,,,0
777255,9463,,E Lane St at N State St,,35.78342,-78.623266,,,0,,America/New_York,,,0
777256,9464,,E Lane St at Heck St,,35.783474,-78.624527,,,0,,America/New_York,,,0
777258,9467,,Ridge Rd at Lewis Farm Rd,,35.809585,-78.684874,,,0,,America/New_York,,,0
777259,9468,,Ridge Rd at Ridgecrest Ct,,35.812361,-78.683714,,,0,,America/New_York,,,0
777260,9469,,Ridge Rd at Churchill Rd,,35.805628,-78.686519,,,0,,America/New_York,,,0
777261,9471,,N Blount St at E Franklin St,,35.790245666844,-78.6359484196434,,,0,,America/New_York,,,0
777262,9472,,N Blount St at E Peace St,,35.78816,-78.636119,,,0,,America/New_York,,,0
777264,9474,,Rock Quarry Rd at Blazing Star Ln,,35.76522696885,-78.61483902938,,,0,,America/New_York,,,0
777265,9475,,Glascock St at Wake Forest Rd,,35.793234,-78.630678,,,0,,America/New_York,,,0
777266,9476,,W Hargett St at S Salisbury St,,35.778342206958,-78.640497921123,,,0,,America/New_York,,,0
777267,9477,,W Hargett St at S Dawson St,,35.778479,-78.643259,,,0,,America/New_York,,,0
777269,9479,,Harrington St at Hillsborough St,,35.780771,-78.644963,,,0,,America/New_York,,,0
777273,9483,,Hillsborough St at Boylan St,,35.780779,-78.649792,,,0,,America/New_York,,,0
777276,9487,,Oberlin Rd at Stafford Ave,,35.78996,-78.66292,,,0,,America/New_York,,,0
777287,9498,,Lead Mine Rd at Belsay Dr,,35.85289,-78.67297,,,0,,America/New_York,,,0
777288,9499,,Lead Mine Rd at Town and Country Rd,,35.84893,-78.6731,,,0,,America/New_York,,,0
777289,9500,,Lead Mine Rd at Sugar Bush Rd,,35.84499,-78.67416,,,0,,America/New_York,,,0
777290,9501,,Lead Mine Rd at Charles Dr,,35.841287,-78.67425,,,0,,America/New_York,,,0
777291,9502,,Lead Mine Rd at Philcrest Rd,,35.84171,-78.6742,,,0,,America/New_York,,,0
777292,9503,,Lead Mine Rd at Sugar Bush Rd,,35.845526,-78.673729,,,0,,America/New_York,,,0
777293,9504,,Lead Mine Rd at French Dr,,35.84921,-78.67272,,,0,,America/New_York,,,0
777294,9505,,Glenbrook Dr at Martin Luther King Jr Blvd (SB),,35.7717401430491,-78.6004756763861,,,0,,America/New_York,,,0
777295,9506,,Glenbrook Dr at Fernbrook Rd (WB),,35.769692,-78.601734,,,0,,America/New_York,,,0
777296,9507,,Glenbrook Dr at Dacian Rd (SB),,35.768189,-78.603219,,,0,,America/New_York,,,0
777304,9516,,Martin Luther King Jr Blvd at Raleigh Blvd (EB),,35.769748,-78.614252,,,0,,America/New_York,,,0
777305,9517,,Poole Rd at King Richard Rd,,35.772484,-78.590762,,,0,,America/New_York,,,0
777306,9518,,Poole Rd at Rawls Dr (EB),,35.772411,-78.588074,,,0,,America/New_York,,,0
777307,9519,,Poole Rd at Cooper Rd (EB),,35.772241,-78.585575,,,0,,America/New_York,,,0
777308,9525,,Spring Forest Rd at New Market Way (EB),,35.86903,-78.617166,,,0,,America/New_York,,,0
777309,9526,,Spring Forest Rd at Andsley Dr,,35.86899,-78.61265,,,0,,America/New_York,,,0
777310,9527,,Spring Forest Rd at Meadowview Dr (EB),,35.868116,-78.611075,,,0,,America/New_York,,,0
777311,9528,,Spring Forest Rd at Exchange Park (EB),,35.86637,-78.607991,,,0,,America/New_York,,,0
777312,9529,,Spring Forest Rd at Quail Ridge Rd (EB),,35.864513068656,-78.604809396341,,,0,,America/New_York,,,0
777313,9530,,Spring Forest Rd at Timber Ridge Dr (EB),,35.862845,-78.602561,,,0,,America/New_York,,,0
777314,9531,,Atlantic Ave at Spring Forest Rd,,35.8617,-78.59971,,,0,,America/New_York,,,0
777315,9532,,Capital Blvd at Wayside Furniture,,35.863599097572,-78.5817999933421,,,0,,America/New_York,,,0
777316,9542,,Louisburg Rd at Fox Rd,,35.868719,-78.545085,,,0,,America/New_York,,,0
777317,9543,,Louisburg Rd at Harnett Dr,,35.8725,-78.54336,,,0,,America/New_York,,,0
777318,9545,,Fox Rd at Herman Pl,,35.87131,-78.55374,,,0,,America/New_York,,,0
777319,9546,,Perry Creek Rd at Clarks Fork Dr,,35.889334892859,-78.5560239402373,,,0,,America/New_York,,,0
777320,9547,,Durant Rd at Capital Blvd,,35.894333,-78.562243,,,0,,America/New_York,,,0
777325,9563,,St Marys St at Glenwood Ave (NB),,35.8119541317,-78.65130282166,,,0,,America/New_York,,,0
777327,9566,,Poole Rd at Ashford St,,35.772006,-78.592478,,,0,,America/New_York,,,0
777328,9568,,Sunnybrook Rd at Poole Rd (NB),,35.773102,-78.583186,,,0,,America/New_York,,,0
777329,9569,,Sungate Blvd at Sunnybrook Rd,,35.776429,-78.582742,,,0,,America/New_York,,,0
777330,9570,,Morgan St at Glenwood Ave,,35.77984,-78.646736,,,0,,America/New_York,,,0
777332,9572,,Old Wake Forest Rd at Oak Forest Dr,,35.8654295920668,-78.5919342714524,,,0,,America/New_York,,,0
777333,9573,,Old Wake Forest Rd at Barrow Dr,,35.86735,-78.58778,,,0,,America/New_York,,,0
777334,9574,,Old Wake Forest Rd at Capital Blvd,,35.870069,-78.582556,,,0,,America/New_York,,,0
777335,9575,,Triangle Town Center Blvd at Sumner Blvd,,35.864113,-78.571393,,,0,,America/New_York,,,0
777336,9576,,Triangle Town Center Blvd at Middle Poyner Dr,,35.865558,-78.571401,,,0,,America/New_York,,,0
777337,9577,,Old Wake Forest Rd at Triangle Town Center Blvd,,35.8672777581162,-78.5691859725722,,,0,,America/New_York,,,0
777338,9578,,Fox Rd at Bivens Dr,,35.86744,-78.56248,,,0,,America/New_York,,,0
777339,9579,,Fox Rd at Terrace Park Ct,,35.86881,-78.55982,,,0,,America/New_York,,,0
777340,9580,,Fox Rd at Werribee Dr,,35.87111,-78.55613,,,0,,America/New_York,,,0
777341,9581,,Perry Creek Rd at North Raleigh Christian Academy,,35.8779600514637,-78.5433234681626,,,0,,America/New_York,,,0
777342,9582,,Perry Creek Rd at Filbin Creek Dr,,35.8867686633708,-78.5542128368516,,,0,,America/New_York,,,0
777343,9583,,Durant Rd at Leslieshire Dr,,35.8977,-78.57041,,,0,,America/New_York,,,0
777344,9584,,Durant Rd at Camp Durant Rd,,35.901129,-78.578936,,,0,,America/New_York,,,0
777346,9586,,Durant Rd at Deponie Dr,,35.903881,-78.585091,,,0,,America/New_York,,,0
777347,9588,,Durant Rd at Raven Ridge Rd,,35.905418,-78.591109,,,0,,America/New_York,,,0
777348,9589,,Durant Rd at Rio Wild Dr,,35.90764,-78.5975,,,0,,America/New_York,,,0
777353,9595,,Fox Rd at Beaverwood Dr (EB),,35.87147,-78.55116,,,0,,America/New_York,,,0
777354,9596,,Fox Rd at Louisburg Rd (EB),,35.86873,-78.54629,,,0,,America/New_York,,,0
777355,9597,,Perry Creek Rd at Berkshire Downs Dr (WRAL Soccer Fields),,35.8821861415151,-78.5496728953216,,,0,,America/New_York,,,0
777357,9599,,Athers Dr at Athena Woods Ln,,35.770886,-78.712272,,,0,,America/New_York,,,0
777358,9600,,S Boylan Ave at Dorothea Dr (Outbound),,35.7717933799602,-78.6528536459984,,,0,,America/New_York,,,0
777359,9601,,W Lenoir St at S Saunders St,,35.773323,-78.648592,,,0,,America/New_York,,,0
777360,9602,,Trailwood Dr at Lineberry Dr,,35.75091,-78.69464,,,0,,America/New_York,,,0
777361,9603,,Lead Mine Rd at Belsay Dr,,35.85326,-78.67223,,,0,,America/New_York,,,0
777362,9604,,Avent Ferry Rd at Trailwood Dr (Kensington Apts),,35.7693634746,-78.6909845247,,,0,,America/New_York,,,0
777363,9605,,Avent Ferry Rd at Pineview Dr,,35.766883,-78.705196,,,0,,America/New_York,,,0
777364,9608,,Martin Luther King Jr Blvd at Raleigh Blvd (WB),,35.770159,-78.61369,,,0,,America/New_York,,,0
777366,9610,,Martin Luther King Jr Blvd at Coleman St (WB),,35.7678066960103,-78.6229267293402,,,0,,America/New_York,,,0
777367,9611,,Martin Luther King Jr Blvd at Holmes St (WB),,35.768063,-78.628441,,,0,,America/New_York,,,0
777368,9612,,Cates Ave at Jensen Dr (EB),,35.7818834064,-78.6680446859,,,0,,America/New_York,,,0
777369,9613,,Dunn Ave at Jeter Dr (Coliseum Parking Deck),,35.7838546455,-78.6682152343,,,0,,America/New_York,,,0
777370,9614,,Morrill Dr at Faucette Dr,,35.781442410688,-78.674683646488,,,0,,America/New_York,,,0
777371,9615,,Athens Dr at Kaplan Dr,,35.773164,-78.715159,,,0,,America/New_York,,,0
777372,9616,,Athens Dr at Hailey Dr,,35.775559,-78.718037,,,0,,America/New_York,,,0
777373,9617,,Athens Dr at Avent Ferry Rd (Athens Drive High School),,35.7689739410755,-78.7094392711639,,,0,,America/New_York,,,0
777374,9620,,New Bern Ave at Trawick Rd (EB),,35.797423,-78.577199,,,0,,America/New_York,,,0
777375,9621,,New Bern Ave at Plainview Dr,,35.797945,-78.575297,,,0,,America/New_York,,,0
777376,9622,,New Bern Ave at Corporation Pkwy (EB),,35.7988986791365,-78.5690362059895,,,0,,America/New_York,,,0
777377,9623,,New Hope Commons Walmart,,35.800704426328,-78.5615368809509,,,0,,America/New_York,,,0
777378,9624,,Corporation Pkwy at Lake Woodard Dr,,35.8024,-78.56703,,,0,,America/New_York,,,0
777379,9625,,Corporation Pkwy at New Bern Ave,,35.79976,-78.56849,,,0,,America/New_York,,,0
777380,9626,,New Bern Ave at Corporation Pkwy (WB),,35.79932,-78.5699,,,0,,America/New_York,,,0
777381,9629,,Lake Woodard Dr at Summerdale Dr,,35.80158,-78.58248,,,0,,America/New_York,,,0
777382,9630,,Lake Woodard Dr at Billingham Ct,,35.80228,-78.58514,,,0,,America/New_York,,,0
777383,9631,,Lake Woodard Dr at Timberlake Apts,,35.80613,-78.5939,,,0,,America/New_York,,,0
777384,9632,,Brentwood Rd at Westinghouse Blvd,,35.808724,-78.594344,,,0,,America/New_York,,,0
777385,9633,,Brentwood Rd at Skycrest Dr,,35.810781,-78.593894,,,0,,America/New_York,,,0
777386,9634,,Brentwood Rd at Stony Brook Dr,,35.81732,-78.59466,,,0,,America/New_York,,,0
777387,9635,,Brentwood Rd at Capital Blvd,,35.81871,-78.5955,,,0,,America/New_York,,,0
777388,9636,,Buffaloe Rd at Capital Blvd,,35.83478,-78.58213,,,0,,America/New_York,,,0
777389,9637,,Buffaloe Rd at Bison Hill Ln,,35.8318,-78.579492,,,0,,America/New_York,,,0
777391,9639,,3812 Buffaloe Rd,,35.830394,-78.572962,,,0,,America/New_York,,,0
777392,9640,,Buffaloe Rd at New Hope Rd,,35.831,-78.56946,,,0,,America/New_York,,,0
777393,9641,,New Hope Rd at Donna Rd,,35.82679,-78.56936,,,0,,America/New_York,,,0
777394,9642,,New Hope Rd at Butler Blvd,,35.8242588707551,-78.5693248542905,,,0,,America/New_York,,,0
777395,9643,,Marsh Creek Rd at New Hope Rd,,35.82169,-78.57053,,,0,,America/New_York,,,0
777396,9644,,Marsh Creek Rd at Vena Wilburn Elementary School,,35.81968,-78.57569,,,0,,America/New_York,,,0
777397,9645,,Marsh Creek Rd at Pinehurst Dr,,35.81848,-78.5785,,,0,,America/New_York,,,0
777398,9646,,Trawick Rd at Streams of Fields Dr,,35.81463,-78.57943,,,0,,America/New_York,,,0
777399,9647,,Skycrest Dr at Trawick Rd,,35.81047,-78.57709,,,0,,America/New_York,,,0
777400,9648,,Skycrest Dr at Hatton Way,,35.8105,-78.57266,,,0,,America/New_York,,,0
777401,9649,,Skycrest Dr at Charny Dr,,35.811275,-78.567621,,,0,,America/New_York,,,0
777402,9650,,New Hope Rd at Charny Dr,,35.8090738725671,-78.5652270275259,,,0,,America/New_York,,,0
777403,9651,,New Hope Rd at Willow Oak R,,35.8055373295063,-78.5648166472387,,,0,,America/New_York,,,0
777405,9653,,E Hargett St at S State St,,35.777764,-78.623069,,,0,,America/New_York,,,0
777406,9654,,Carolina Pines Ave at Sardis Dr (SB),,35.749383,-78.658589,,,0,,America/New_York,,,0
777407,9656,,Pecan Rd at S Wilmington St (EB),,35.7483270629484,-78.6444959942277,,,0,,America/New_York,,,0
777408,9657,,Pecan Rd at S Wilmington St (WB),,35.748457,-78.644377,,,0,,America/New_York,,,0
777410,9659,,S Blount St at E South Ave,,35.7717798076519,-78.6369732361936,,,0,,America/New_York,,,0
777411,9660,,Martin Luther King Jr Blvd at S Person St (EB),,35.769334698505,-78.6356813443197,,,0,,America/New_York,,,0
777412,9661,,Martin Luther King Jr Blvd at S Person St (WB),,35.7695040783557,-78.6356363576788,,,0,,America/New_York,,,0
777414,9663,,Creedmoor Rd at Sherborne Pl (NB),,35.854695,-78.680293,,,0,,America/New_York,,,0
777415,9665,,Camelot Dr at Dartmouth Rd,,35.83822,-78.63908,,,0,,America/New_York,,,0
777416,9666,,St Albans St at Camelot Dr,,35.836958,-78.636223,,,0,,America/New_York,,,0
777417,9667,,Hardimont Rd at Quail Hollow Dr,,35.835866,-78.625635,,,0,,America/New_York,,,0
777418,9668,,Hardimont Rd at Colby Dr,,35.837363,-78.61867,,,0,,America/New_York,,,0
777419,9669,,Hardimont Rd at Bland Rd (EB),,35.837157,-78.614544,,,0,,America/New_York,,,0
777421,9671,,Lassiter Mill Rd at Six Forks Rd,,35.839341,-78.643091,,,0,,America/New_York,,,0
777422,9672,,Six Forks Rd at Anderson Dr,,35.823258,-78.632107,,,0,,America/New_York,,,0
777424,9674,,Edenton St at Salisbury St,,35.781328,-78.640255,,,0,,America/New_York,,,0
777426,9676,,St Marys St at Johnson St (NB),,35.787632,-78.650837,,,0,,America/New_York,,,0
777427,9677,,Peace St at Smallwood Dr,,35.788688,-78.654438,,,0,,America/New_York,,,0
777428,9678,,Oberlin Rd at Van Dyke Ave,,35.795193,-78.661144,,,0,,America/New_York,,,0
777429,9679,,Glenwood Ave at Granville Dr,,35.82049,-78.663735,,,0,,America/New_York,,,0
777431,9681,,Blue Ridge Rd at Noremac Dr,,35.830583,-78.686052,,,0,,America/New_York,,,0
777432,9682,,Blue Ridge Rd at Glen Eden Dr (SB),,35.828076,-78.690909,,,0,,America/New_York,,,0
777433,9683,,Blue Ridge Rd at Edgemont Dr,,35.825846,-78.696241,,,0,,America/New_York,,,0
777434,9684,,Blue Ridge Rd at Burch Dr (SB),,35.824628,-78.698487,,,0,,America/New_York,,,0
777435,9685,,Blue Ridge Rd at Carovel Ct (SB),,35.823392,-78.700466,,,0,,America/New_York,,,0
777436,9686,,Blue Ridge Rd at Bentley Bridge Rd,,35.822905,-78.701296,,,0,,America/New_York,,,0
777437,9687,,Blue Ridge Rd at Ed Dr (SB),,35.822084,-78.702778,,,0,,America/New_York,,,0
777438,9688,,Blue Ridge Rd at Forest View Rd (NB),,35.817333,-78.704953,,,0,,America/New_York,,,0
777439,9689,,Blue Ridge Rd at Duraleigh Rd,,35.821192,-78.704384,,,0,,America/New_York,,,0
777440,9690,,Blue Ridge Rd at Ed Dr (NB),,35.821912,-78.702744,,,0,,America/New_York,,,0
777441,9691,,Blue Ridge Rd at Carovel Ct (NB),,35.823257,-78.700344,,,0,,America/New_York,,,0
777442,9692,,Blue Ridge Rd at Burch Dr (NB),,35.824312,-78.698652,,,0,,America/New_York,,,0
777443,9693,,Blue Ridge Rd at Morningside Dr,,35.826108,-78.694825,,,0,,America/New_York,,,0
777444,9694,,Blue Ridge Rd at Glen Eden Dr (NB),,35.828924,-78.690043,,,0,,America/New_York,,,0
777445,9695,,Blue Ridge Rd at Arbor Dr,,35.829853,-78.687723,,,0,,America/New_York,,,0
777446,9696,,Blue Ridge Rd at Homewood Banks Dr,,35.832722,-78.681151,,,0,,America/New_York,,,0
777447,9697,,Oberlin Rd at Cartier Dr,,35.814886,-78.659483,,,0,,America/New_York,,,0
777448,9698,,Oberlin Rd at Ashland St,,35.812156,-78.657479,,,0,,America/New_York,,,0
777449,9699,,Oberlin Rd at Fairview Rd,,35.810002,-78.655951,,,0,,America/New_York,,,0
777450,9700,,Oberlin Rd at Colonial Rd,,35.806244,-78.656204,,,0,,America/New_York,,,0
777451,9701,,Oberlin Rd at Craig St,,35.803413,-78.657984,,,0,,America/New_York,,,0
777452,9702,,St Marys St at Johnson St (SB),,35.787959,-78.650997,,,0,,America/New_York,,,0
777454,9704,,Morgan St at McDowell St,,35.779597,-78.641139,,,0,,America/New_York,,,0
777455,9708,,Crosslink Rd at Brumlow Ln,,35.739918496139,-78.62687682209,,,0,,America/New_York,,,0
777456,9709,,Garner Station Blvd at Lennox Place,,35.724683,-78.658954,,,0,,America/New_York,,,0
777457,9710,,Maywood Ave at Herring St,,35.761109,-78.655211,,,0,,America/New_York,,,0
777458,9717,,Halifax St at E Franklin St,,35.790187,-78.638354,,,0,,America/New_York,,,0
777459,9718,,Glascock St at Benjamin St,,35.793153,-78.63112,,,0,,America/New_York,,,0
777460,9719,,Culpepper Rd at Boswell Rd,,35.790320348003,-78.6018964324541,,,0,,America/New_York,,,0
777461,9721,,Hadley Dr at Cross Link Rd,,35.751389,-78.61735,,,0,,America/New_York,,,0
777463,9724,,Seabrook Rd at Golden St,,35.741908,-78.621806,,,0,,America/New_York,,,0
777464,9725,,1322 Crosslink Rd,,35.749556347076,-78.618229750742,,,0,,America/New_York,,,0
777465,9726,,Lenoir St at Coleman St,,35.772569,-78.622591,,,0,,America/New_York,,,0
777466,9727,,Lenoir St at Bloodworth St,,35.772758,-78.633473,,,0,,America/New_York,,,0
777469,9730,,Southeast St at E Cabarrus St,,35.7737694869074,-78.6326679969416,,,0,,America/New_York,,,0
777470,9731,,E Hargett St at S Person St,,35.778156,-78.634624,,,0,,America/New_York,,,0
777471,9732,,E Hargett St at S Blount St,R-Line stop R18.,35.7782416002409,-78.6364401104507,,,0,,America/New_York,,,0
777472,9733,,Martin Luther King Jr Blvd at Holmes St (EB),,35.767837,-78.628386,,,0,,America/New_York,,,0
777473,9735,,Carolina Pines Ave at Carolina Hills Ln,,35.751586,-78.661475,,,0,,America/New_York,,,0
777474,9736,,Glen Royal Rd at Brownleigh Dr,,35.88256134648,-78.746965135893,,,0,,America/New_York,,,0
777475,9737,,Maitland Dr at New Bern Ave,,35.796714,-78.580752,,,0,,America/New_York,,,0
777476,9738,,Maitland Dr at Bastion Ln,,35.796841,-78.582776,,,0,,America/New_York,,,0
777478,9740,,Bastion Ln at Tower Shopping Center,,35.799037,-78.582032,,,0,,America/New_York,,,0
777479,9741,,Bastion Ln at Lake Woodard Dr,,35.801397,-78.580575,,,0,,America/New_York,,,0
777480,9742,,W Davie St at Fayetteville St,,35.7755623173642,-78.6395518021235,,,0,,America/New_York,,,0
777481,9743,,E Davie St at Fayetteville St,,35.7756580875696,-78.6390945767212,,,0,,America/New_York,,,0
777482,9744,,Dawson St at Cabarrus St,,35.77464,-78.64377,,,0,,America/New_York,,,0
777483,9745,,S Wilmington St at Illeagnes Rd,,35.744914,-78.646165,,,0,,America/New_York,,,0
777484,9746,,S Wilmington St at Rush St,,35.744877,-78.64586,,,0,,America/New_York,,,0
777485,9749,,Edwards Mill Rd at Blueberry St,,35.828383,-78.702651,,,0,,America/New_York,,,0
777487,9751,,Edwards Mill Rd at Glen Laurel Dr (Stough Elementary School),,35.8368356654571,-78.6919545649755,,,0,,America/New_York,,,0
777488,9753,,Edwards Mill Rd at Glen Eden Dr (SB),"Located right at intersection of Glen Eden Drive with Edwards Mill Road, heading south-southwest toward Duraleigh Road and Reedy Creek Road.",35.8332036984028,-78.69847240268,,,0,,America/New_York,,,0
777489,9754,,Edwards Mill Rd at Carriage Dr (Laurel Hills Park),Located just north-northeast of the entrance to Laurel Hills Park off Edwards Mill Road.,35.8308594899543,-78.7003753185149,,,0,,America/New_York,,,0
777490,9755,,Edwards Mill Rd at Laurel Hills Rd (south),,35.828273,-78.702982,,,0,,America/New_York,,,0
777491,9756,,Ridge Rd at Lake Boone Rd,,35.814696,-78.682676,,,0,,America/New_York,,,0
777492,9757,,Oak Rd at Carolina Pines Ave,,35.748127,-78.658549,,,0,,America/New_York,,,0
777493,9758,,Carolina Pines Ave at Marble St,,35.74749,-78.65204,,,0,,America/New_York,,,0
777494,9759,,Rush St at Sheldon Dr,,35.741934,-78.636929,,,0,,America/New_York,,,0
777495,9760,,Cross Link Rd at Laodicea Dr,,35.740056,-78.627274,,,0,,America/New_York,,,0
777496,9761,,Rush St at Hammond Rd,,35.742979,-78.642623,,,0,,America/New_York,,,0
777497,9762,,Carolina Pines Ave at Springhill Ave,,35.7509481733495,-78.6593876031127,,,0,,America/New_York,,,0
777499,9766,,Lake Wheeler Rd at Stewart Dr,,35.745718,-78.67709,,,0,,America/New_York,,,0
777500,9767,,Noblin Rd at Raleigh Blvd,"Food pantry stop on 15L at 11:10, 11:55,13:25, and 14:10 ONLY.",35.81044,-78.60076,,,0,,America/New_York,,,0
777501,9768,,Creedmoor Rd at Falcon Rest Cir,,35.89188,-78.679921,,,0,,America/New_York,,,0
777502,9769,,Macaw St at Brier Creek Pkwy (Brasa Steakhouse),,35.905485,-78.783672,,,0,,America/New_York,,,0
777503,9770,,Arco Corporate Dr at Macaw St,,35.9060681379507,-78.7783276396794,,,0,,America/New_York,,,0
777504,9775,,Michael J Smith Ln at Carl Sandburg Ct,,35.7799157619884,-78.5801216224241,,,0,,America/New_York,,,0
777506,9777,,W Davie St at S Harrington St,,35.775758383526,-78.645046280114,,,0,,America/New_York,,,0
777507,9778,,Creedmoor Rd at Lynn Rd (NB),,35.874286,-78.679225,,,0,,America/New_York,,,0
777508,9779,,Lineberry Dr at Broad Oaks Pl,,35.7510899529165,-78.6804591519385,,,0,,America/New_York,,,0
777509,9781,,Sierra Dr at Shenandoah Rd,,35.75117,-78.67402,,,0,,America/New_York,,,0
777510,9782,,Sierra Dr at Balboa Rd,,35.75097,-78.67232,,,0,,America/New_York,,,0
777511,9783,,Sierra Dr at Lake Wheeler Rd,,35.75104,-78.66973,,,0,,America/New_York,,,0
777512,9786,,Glenwood Ave at The Circle,,35.809013,-78.648703,,,0,,America/New_York,,,0
777513,9787,,Purser Dr at Wal-Mart,,35.717759905459,-78.659559366789,,,0,,America/New_York,,,0
777514,9788,,N Blount St at Polk St,,35.786348,-78.636219,,,0,,America/New_York,,,0
777515,9789,,N Blount St at E Lane St,,35.783978,-78.636351,,,0,,America/New_York,,,0
777516,9790,,N Blount St at Morgan St,,35.779895,-78.63656,,,0,,America/New_York,,,0
777517,9791,,Gorman St at Hillsborough St,,35.793044,-78.684368,,,0,,America/New_York,,,0
777518,9792,,Trailwood Hills Dr at Tryon Rd,,35.743694,-78.683248,,,0,,America/New_York,,,0
777519,9793,,Trailwood Hills Dr at Alder Ridge Ln,,35.74738,-78.685079,,,0,,America/New_York,,,0
777520,9794,,Trailwood Hills Dr at Laurel Falls Ln,,35.749363,-78.685002,,,0,,America/New_York,,,0
777521,9795,,Trailwood Hills Dr at Tryon Rd,,35.743564,-78.683426,,,0,,America/New_York,,,0
777522,9796,,Tryon Rd at Disk Dr,,35.7436225285749,-78.6877932394702,,,0,,America/New_York,,,0
777523,9797,,Rush St at Hammond Rd (VA Clinic),,35.742457,-78.639549,,,0,,America/New_York,,,0
777524,9798,,Tryon Rd at Tryon Grove Dr,,35.744487,-78.689998,,,0,,America/New_York,,,0
777525,9799,,Lineberry Dr at Deep Forest Trl,,35.7494706897894,-78.6893729654063,,,0,,America/New_York,,,0
777526,9801,,Trailwood Hills Dr at Laurel Falls Ln,,35.749354,-78.685179,,,0,,America/New_York,,,0
777527,9802,,Poplar St at Mordecai St,,35.794568,-78.632459,,,0,,America/New_York,,,0
777528,9803,,Trailwood Hills Dr at Barrymore St,,35.745245,-78.683828,,,0,,America/New_York,,,0
777529,9805,,Trailwood Dr at Tryon Rd,,35.7484454745358,-78.695354633389,,,0,,America/New_York,,,0
777530,9806,,Trailwood Hills Dr at Alder Ridge Ln,,35.7467224884376,-78.6845805878705,,,0,,America/New_York,,,0
777532,9808,,S Boylan Ave at W Lenoir St,,35.77307,-78.650759,,,0,,America/New_York,,,0
777533,9809,,Western Blvd at Hunt Dr (WB),,35.775236,-78.65696,,,0,,America/New_York,,,0
777534,9810,,Pullen Rd at Cates Ave,,35.781636,-78.666104,,,0,,America/New_York,,,0
777535,9811,,Avent Ferry Rd at Varsity Dr,,35.7756642235741,-78.6804097978572,,,0,,America/New_York,,,0
777536,9900,,Raleigh Convention Center,R-Line stop R1.,35.773336,-78.640528,,,0,,America/New_York,,,0
777537,9901,,Performing Arts Center (R2),R-Line stop R2.,35.772122961416,-78.639205108835,,,0,,America/New_York,,,0
777538,9902,,Wilmington St at Cabarrus St (R3),"R-Line stop R3.  Shelter stop located along S Wilmington Street, near the entrance to a municipal multi-story parking garage.",35.774712,-78.638345,,,0,,America/New_York,,,0
777539,8908,,Wilmington St at Davie St (R4),R-Line stop R4.,35.77627,-78.63825,,,0,,America/New_York,,,0
777540,9919,,Wilmington St at E Hargett St (R5),R-Line stop R5.,35.777944,-78.638177,,,0,,America/New_York,,,0
777541,8002,,Wilmington St at Morgan St (R6),,35.779891,-78.638058,,,0,,America/New_York,,,0
777542,8006,,N Wilmington St at North St (R8),State Government Complex,35.785056,-78.637739,,,0,,America/New_York,,,0
777543,9910,,West St at Johnson St (R10),R-Line stop R10.,35.787423,-78.64567,,,0,,America/New_York,,,0
777544,9911,,West St at Tucker St (R11),R-Line stop R11.,35.786353,-78.64571,,,0,,America/New_York,,,0
777545,9906,,West St at North St (R12),R-Line stop R12.,35.784174,-78.645817,,,0,,America/New_York,,,0
777546,9000,,Raleigh Union Station (R14),Stop (R14),35.777293,-78.646171,,,0,,America/New_York,,,0
777547,9004,,Harrington St at Hillsborough St (R16),,35.780254,-78.644947,,,0,,America/New_York,,,0
777548,9917,,Harrington St at Hargett St (R15),,35.778283,-78.645038,,,0,,America/New_York,,,0
777549,9917,,Harrington St at Hargett St,,35.778275,-78.645207,,,0,,America/New_York,,,0
777551,9920,,Martin St at Blake St (R17),R-Line stop R17.,35.776754600495,-78.635518607305,,,0,,America/New_York,,,0
777552,9921,,Hargett St at Wilmington St (R19),R-Line stop R19.,35.778295720046,-78.638046731606,,,0,,America/New_York,,,0
777553,9923,,New Bern Ave at WakeMed (WB),,35.786326,-78.589272,,,0,,America/New_York,,,0
777554,9924,,Avent Ferry Rd at Avery Close Apts,,35.7739277451,-78.6827501596,,,0,,America/New_York,,,0
785388,8294,,Proctor St at Rock Quarry Rd,,35.75431,-78.61177,,,0,,America/New_York,,,0
785390,8295,,Proctor St at Fountain Dr,,35.75333,-78.60947,,,0,,America/New_York,,,0
785391,9722,,Southgate Dr at Crawford Rd,,35.7535641915325,-78.6077784180078,,,0,,America/New_York,,,0
785394,8296,,Atkins Dr at Southgate Dr,,35.7541188489206,-78.6067047340973,,,0,,America/New_York,,,0
785396,8297,,2008 Atkins Dr,,35.7524560271259,-78.6061123705402,,,0,,America/New_York,,,0
785398,8298,,Atkins Dr at Tee Dee St,,35.7498443897734,-78.6065751219303,,,0,,America/New_York,,,0
785399,8299,,Atkins Dr at Rock Quarry Rd,,35.7489816418615,-78.6073920616868,,,0,,America/New_York,,,0
785400,8285,,Rock Quarry Rd at Edwin Dr (NB),,35.7511668356411,-78.6120689100831,,,0,,America/New_York,,,0
795455,1201,,Hillsborough St at Mayo St (EB),"Located just East of junction of Mayo St with Hillsborough St, right across the street from Saint Mary's school historic marker.",35.781524,-78.653343,,,0,,America/New_York,,,0
795456,1703,,Hillsborough St at Dawson St,,35.780537,-78.645245,,,0,,America/New_York,,,0
796289,9179,,Sunnybrook Rd at Calumet Dr (WakeMed Medical Park),"Located just South of junction with Calumet Rd, directly in front of new WakeMed Capital City Surgery Center.",35.78708,-78.58639,,,0,,America/New_York,,,0
796290,9217,,Glenbrook Dr at Ellerbe Ln,"Located across the street from junction of Glenbrook Dr at Ellerbe Ln, heading North (roughly at 701 Glenbrook Dr).",35.767481,-78.603553,,,0,,America/New_York,,,0
796757,1284,,Wilmington St at Cabarrus St,"Located just North of junction of Cabarrus St with Wilmington St, along Wilmington St; just North of first lamp post.",35.774364378619,-78.63835582209,,,0,,America/New_York,,,0
796759,8341,,Sanderford Rd at Evers Rd,Located just South of junction of Evers Rd with Sanderford Rd.,35.74686,-78.61367,,,0,,America/New_York,,,0
798152,8340,,Glenwood Ave at Munford Rd (SB),"New stop, not yet in ground (as of 22/7/2015).  Likely to be just before junction of Oak Park Rd with Glenwood Ave.",35.855558,-78.702002,,,0,,America/New_York,,,0
802482,8942,,Peyton St at Belmont Dr (NB),"Located just North-northwest of intersection of Peyton St and Belmont Dr, almost directly across the street from 830 Peyton St.",35.764903,-78.604359,,,0,,America/New_York,,,0
802483,8943,,Peyton St at Ellerbe Ln,"Located just North of junction of Ellerbe Lane with Peyton St, almost directly across the street from 632 Peyton St.",35.767737,-78.606835,,,0,,America/New_York,,,0
802484,8944,,Peyton St at Dacian Rd,"Located just North of junction of Dacian Rd with Peyton St, in front of apartment block.",35.770094,-78.607002,,,0,,America/New_York,,,0
802485,8945,,Martin Luther King Jr Blvd at Grantland Dr (WB),"Located just East of junction of Grantland Dr with MLK Blvd, near 1819 MLK Jr Blvd.",35.771088,-78.609764,,,0,,America/New_York,,,0
802486,8946,,W Davie St at S Dawson St,"Located just East of intersection of W Davie St and S Dawson St, across the street from 220 W Davie St.",35.775669,-78.642789,,,0,,America/New_York,,,0
803719,8947,,Homewood Banks Dr at Vilana Ridge (The Marq at Crabtree),"Located at shelter stop just North of Vilana Ridge, entrance to Solis Crabtree Apartments.",35.8346628798396,-78.6801059897252,,,0,,America/New_York,,,0
803720,8948,,Homewood Banks Dr at Homewood Suites,Located just South of entrance to Homewood Suites Crabtree Valley hotel.,35.8359632393953,-78.6799945784751,,,0,,America/New_York,,,0
807061,8949,,Lassiter Mill Rd at Currituck Dr (Outbound),"Located just South of The Circle St, entrance to North Hills Mall from Lassiter Mill Rd.",35.836001,-78.645881,,,0,,America/New_York,,,0
807454,8950,,S Wilmington St Service Rd at Sherwee Dr,"Located along the Wilmington Street Service Rd, between Tryon Road and Chapanoke Road.",35.733669,-78.650271,,,0,,America/New_York,,,0
808178,8951,,Falls Church Rd at Nottoway Ct,,35.862681566284,-78.6174017557621,,,0,,America/New_York,,,0
810860,8978,,Blue Ridge Rd at Crabtree Valley Ave,"Located just east-northeast of intersection of Blue Ridge Road with Crabtree Valley Ave, in front of McDonald's restaurant.",35.8359599873998,-78.6754689607915,,,0,,America/New_York,,,0
810861,8977,,Edwards Mill Rd at Carriage Dr (SB),"Located north-northeast of junction of Carriage Drive with Edwards Mill Road, heading southbound.",35.8312888079857,-78.7002708766264,,,0,,America/New_York,,,0
811150,9541,,Wake Tech Community College - North,,35.867325,-78.541795,,,0,,America/New_York,,,0
811151,8976,,Perry Creek Rd at Capital Blvd,,35.891975,-78.557908,,,0,,America/New_York,,,0
811152,8952,,Falls of Neuse Rd at Durant Rd (WakeMed North),,35.909581,-78.598934,,,0,,America/New_York,,,0
811153,8953,,Falls of Neuse Rd at Raven Ridge Rd,,35.916437,-78.594316,,,0,,America/New_York,,,0
811154,8954,,Raven Ridge Rd at Dapping Dr,,35.912855,-78.591891,,,0,,America/New_York,,,0
811155,8955,,Raven Ridge Rd at Rio Falls Dr,,35.906844,-78.59092,,,0,,America/New_York,,,0
811156,8956,,Durant Rd at Raven Ridge Rd,,35.905055,-78.590459,,,0,,America/New_York,,,0
811157,8957,,Durant Rd at Durant Road Middle School,,35.903957,-78.586148,,,0,,America/New_York,,,0
811158,8958,,Durant Rd at Deerland Grove Dr,,35.902345,-78.581747,,,0,,America/New_York,,,0
811159,8959,,Durant Rd at Camp Durant Rd,,35.90038,-78.577624,,,0,,America/New_York,,,0
811160,8960,,Durant Rd at Leslieshire Dr,,35.897436,-78.570604,,,0,,America/New_York,,,0
811161,8961,,Durant Rd at Capital Blvd,,35.893818,-78.561512,,,0,,America/New_York,,,0
811162,8962,,Perry Creek Rd at Capital Blvd,,35.891811,-78.558173,,,0,,America/New_York,,,0
811163,8963,,Perry Creek Rd at McGuire Dr,,35.888623,-78.555826,,,0,,America/New_York,,,0
811164,8964,,Perry Creek Rd at Liston Dr,,35.886197,-78.554068,,,0,,America/New_York,,,0
811165,8965,,Perry Creek Rd at Berkshire Downs Dr,,35.882027,-78.549811,,,0,,America/New_York,,,0
811166,8966,,Perry Creek Rd at Bentley Cir,,35.878931,-78.545874,,,0,,America/New_York,,,0
811167,8967,,Perry Creek Rd at Louisburg Rd,,35.876095,-78.5408,,,0,,America/New_York,,,0
811168,8968,,Fox Rd at Louisburg Rd (WB),,35.869071,-78.546347,,,0,,America/New_York,,,0
811169,8969,,Fox Rd at Beaverwood Dr (WB),,35.871606,-78.551927,,,0,,America/New_York,,,0
811170,8970,,Fox Rd at Fox Haven Pl,,35.871492,-78.553481,,,0,,America/New_York,,,0
811171,8971,,Fox Rd at Jeffreys Creek Ln,,35.871235,-78.556084,,,0,,America/New_York,,,0
811172,8972,,Fox Rd at Town Dr,,35.868572,-78.560459,,,0,,America/New_York,,,0
811173,8973,,Fox Rd at Segal Dr,,35.867412,-78.564057,,,0,,America/New_York,,,0
811174,8974,,Fox Rd at Sterling Town Center Apartments,,35.867429,-78.567418,,,0,,America/New_York,,,0
811175,8975,,Sumner Blvd at Triangle Town Blvd,,35.863439,-78.571942,,,0,,America/New_York,,,0
811876,8980,,Corporation Pkwy at New Hope Rd,,35.8031442839816,-78.5654357417901,,,0,,America/New_York,,,0
818260,8067,,Wake Forest Crossing Shopping Center (EB),,35.988967,-78.529614,,,0,,America/New_York,,,0
818261,8004,,Stadium Dr at Glencoe Dr (EB),,35.989986,-78.526021,,,0,,America/New_York,,,0
818772,8282,,Hillsborough St at Park Ave (EB),Located at nearside (West) of junction of Ashe Avenue with Hillsborough Street; in front of former IHOP.,35.7836609224399,-78.6568895698041,,,0,,America/New_York,,,0
820636,8981,,Rush St at Hammond Rd (near side),,35.742544,-78.639349,,,0,,America/New_York,,,0
820637,8880,,Tryon Rd at Trailwood Dr,,35.746394312611,-78.6953470322003,,,0,,America/New_York,,,0
835885,8900,,Brier Creek Pkwy at Brier Leaf Ln,,35.908524,-78.785575,,,0,,America/New_York,,,0
835886,8901,,Ebenezer Church Rd at Winchester Dr,,35.882369,-78.741305,,,0,,America/New_York,,,0
838955,8894,,S Blount St at E Davie St,,35.775801,-78.636802,,,0,,America/New_York,,,0
838956,8407,,Garner Station Blvd at North Station (Carlie C's),,35.724969,-78.655283,,,0,,America/New_York,,,0
844536,8895,,W Lenoir St at S Salisbury St,,35.773009,-78.640293,,,0,,America/New_York,,,0
845131,6689,,Brier Creek Pkwy at Skyland Ridge Pkwy,,35.9139798803417,-78.780543291419,,,0,,America/New_York,,,0
848100,9926,,Cary Town Center,,35.773146,-78.75837,,https://goraleigh.org/news/ride-goraleigh-state-fair,0,,America/New_York,,,0
849874,8896,,Martin Luther King Jr Blvd at East St,Located just east-southeast of the intersection of East Street with MLK Jr Boulevard.,35.768306,-78.632341,,,0,,America/New_York,,,0
